UF,Nom_Mun,PopEst2021,PIB_per_capita,lat,long
PA,Novo Progresso,25769.0,37701.86,-7.03289373106111,-55.41453711374453
SC,Balneário Rincão,13129.0,22440.07,-28.836356152,-49.2405474199999
MG,Caiana,5584.0,15876.73,-20.6952823059999,-41.9234581609999
RJ,Varre-Sai,11208.0,23568.37,-20.925928649000003,-41.8695682199999
MG,Carangola,33022.0,19358.62,-20.7338026799999,-42.0283566549999
SP,Santa Cruz da Esperança,2166.0,29296.72,-21.292386649347225,-47.42970195548681
BA,Ibirapuã,8740.0,51568.29,-17.687688977999898,-40.110286564999896
MG,Durandé,7898.0,15560.07,-20.2024536579999,-41.7949631959999
RS,São José dos Ausentes,3559.0,43728.9,-28.748422654861574,-50.064851651669194
RS,Charrua,3228.0,46267.26,-27.954536684999898,-52.0157840079999
RS,Jaquirana,3611.0,26042.85,-28.8839312299999,-50.35827908699989
RS,Quatro Irmãos,1860.0,99979.63,-27.8225677179999,-52.4429150999999
PR,Agudos do Sul,9567.0,22674.09,-25.9874654949999,-49.3357321919999
RS,Cruzaltense,1765.0,82018.89,-27.6673189589999,-52.648800945999895
RS,Paulo Bento,2303.0,85049.56,-27.702899490999897,-52.422610944999896
RS,Pinhal da Serra,1896.0,160718.98,-27.8751584669999,-51.1700194339999
RS,Santa Cecília do Sul,1630.0,88269.41,-28.163866766,-51.9298217059999
PB,Barra de Santa Rosa,15607.0,9665.19,-6.716695889999929,-36.059827527
RN,Currais Novos,45022.0,17863.07,-6.25575659599997,-36.517449713
RN,Florânia,9772.0,12330.46,-6.12355645399998,-36.8106551229999
RN,Janduís,5228.0,16162.7,-6.015316149999929,-37.4077413099999
MT,Alto Taquari,11413.0,113538.74,-17.830207459999897,-53.282479470999895
MT,Novo Santo Antônio,2769.0,20458.85,-12.2914944889999,-50.968330567
MT,Tesouro,3761.0,83165.07,-16.081589396000002,-53.5544639029999
MG,Angelândia,8594.0,16818.81,-17.7259999029999,-42.273002508999895
MG,Capelinha,38321.0,23174.33,-17.6909999069999,-42.5160021449999
MG,Coroaci,9897.0,12690.02,-18.621999927999898,-42.286002493999895
MG,Córrego Fundo,6425.0,49904.63,-20.449,-45.55499999999989
MG,Engenheiro Caldas,11268.0,13936.2,-19.1995300459999,-42.0466874749999
SP,Iaras,9786.0,17261.62,-22.8709999989999,-49.1630000019999
MT,Rondolândia,4069.0,28110.57,-10.8443019740102,-61.459678171994696
PA,Vigia,54650.0,8724.37,-0.855532573667763,-48.1414985852069
MT,Serra Nova Dourada,1705.0,43686.5,-12.090906436999898,-51.402214508
RS,Alecrim,5710.0,28383.93,-27.6549788579999,-54.7640250139999
RS,Santa Margarida do Sul,2593.0,139226.56,-30.3396509999999,-54.07973199999989
MG,Caldas,14600.0,23127.61,-21.9239999999999,-46.385999999999896
RR,Rorainópolis,31387.0,23333.09,0.940860885198041,-60.434524396014794
RR,Amajari,13561.0,17758.73,3.6521516894710344,-61.41938454705263
SC,Caibi,6112.0,51823.35,-27.0745415649999,-53.2487406529999
MG,Camacho,2839.0,24964.43,-20.6249999999999,-45.1569999999999
BA,Irará,29305.0,9764.11,-12.034093352000001,-38.76689676
BA,Ichu,6232.0,9048.63,-11.748685859,-39.190597065999995
MG,Barroso,20981.0,29022.49,-21.1883986909999,-43.97305886499989
GO,Britânia,5815.0,34067.31,-15.242873505,-51.165439751
BA,Santa Terezinha,10520.0,9640.48,-12.769593165999899,-39.52273672599989
BA,Várzea da Roça,14135.0,7937.78,-11.606981708,-40.138670291000004
BA,Terra Nova,13018.0,13089.85,-12.403928442999899,-38.6203571459999
SP,Uru,1142.0,40623.52,-21.7839999989999,-49.2810000019999
PI,Baixa Grande do Ribeiro,11751.0,150504.56,-7.85986998799996,-45.2098717169999
PI,Arraial,4713.0,10380.26,-6.6517443939999294,-42.534918209000004
PI,Antônio Almeida,3175.0,45295.91,-7.21944277499995,-44.193558888
PI,Agricolândia,5123.0,9229.59,-5.797946567999929,-42.658530399
PI,Barras,47298.0,10520.51,-4.24484476599997,-42.293833268
PI,Nossa Senhora de Nazaré,4911.0,9750.53,-4.627029487999949,-42.176674654
PI,São Lourenço do Piauí,4581.0,9891.95,-9.16874561299994,-42.547427125999896
PI,Pavussu,3662.0,10293.08,-7.96499155399994,-43.22517658
PI,Amarante,17609.0,10937.14,-6.244857231999959,-42.850799743
PI,Barra D'Alcântara,3953.0,9856.65,-6.51934274399997,-42.106783707
PI,Altos,40681.0,13219.3,-5.03919400199993,-42.4595655959999
PI,Porto,12646.0,9374.27,-3.89169810599998,-42.711565955
PI,Alto Longá,14371.0,9112.43,-5.25584042199995,-42.204562458999895
PI,Alvorada do Gurguéia,5469.0,15016.43,-8.443936732531537,-43.86309294019152
PI,Avelino Lopes,11361.0,8590.91,-10.134663318000001,-43.949595566999996
PI,Francisco Ayres,4300.0,10875.11,-6.62522944099993,-42.6936298319999
PI,Lagoinha do Piauí,2870.0,14117.98,-5.83158293899993,-42.633797892000004
MG,Couto de Magalhães de Minas,4436.0,14262.94,-18.07534398833914,-43.47215101820735
MG,Cantagalo,4575.0,12406.75,-18.52648247533299,-42.62623555766705
MG,Pingo-d'Água,5029.0,10483.1,-19.726999960999898,-42.4080023349999
MG,Açucena,9270.0,17888.2,-19.0729999409999,-42.546002109999904
MG,Águas Formosas,19285.0,14913.12,-17.0827280549999,-40.9363067449999
PI,Beneditinos,10479.0,8769.43,-5.456788538999939,-42.3598785029999
PI,Bertolínia,5512.0,13091.16,-7.636267930999959,-43.9531792769999
MG,Pitangui,28433.0,26073.15,-19.6829999999999,-44.889999999999894
MG,Alvarenga,3783.0,14445.67,-19.41641423194732,-41.727124725125975
MG,Andradas,41704.0,28386.06,-22.0679999929999,-46.56900008299989
MG,Arcos,40658.0,57713.61,-20.2819999999999,-45.538999999999895
RS,Água Santa,3738.0,146445.07,-28.178004026999897,-52.035153556000004
RS,Ajuricaba,6951.0,74961.71,-28.2389999999999,-53.770999980999896
MG,Chiador,2657.0,14020.88,-22.0034828709999,-43.05606347399989
RS,Ametista do Sul,7396.0,24036.02,-27.360909446999898,-53.184589894999895
RS,André da Rocha,1351.0,142922.95,-28.631779495999897,-51.5717520939999
PB,Araçagi,16857.0,11026.72,-6.85274874199996,-35.379623306999996
PB,Bananeiras,21220.0,13143.47,-6.74433870399997,-35.630921896000004
PB,Cuité de Mamanguape,6360.0,11652.59,-6.91514006999995,-35.250818135
RN,Canguaretama,34814.0,17397.55,-6.381400624999969,-35.1293546119999
RN,Espírito Santo,10463.0,9326.78,-6.33290026499998,-35.311766054
RN,Nova Cruz,37554.0,14925.2,-6.47905483199997,-35.434343627
RN,Passa e Fica,13667.0,11145.41,-6.433118236999969,-35.645794431999896
RN,Pedro Velho,14881.0,11667.15,-6.4389898939999695,-35.221682566
RN,Santo Antônio,24422.0,12387.88,-6.31117759299997,-35.480521247000006
PB,Natuba,10449.0,9136.26,-7.643499875999959,-35.5531124459999
PB,Salgado de São Félix,12123.0,10610.87,-7.35758023099993,-35.4363663249999
RN,Lagoa de Velhos,2732.0,13997.62,-6.00392511699994,-35.871233737
RN,Riachuelo,8310.0,23123.68,-5.81410237299997,-35.824058994
RN,Ruy Barbosa,3584.0,35372.02,-5.881289847999939,-35.935296181
RN,Santa Maria,5689.0,13716.38,-5.839977615999939,-35.693394317999896
RN,São Paulo do Potengi,17858.0,12966.47,-5.893835044999951,-35.764769867
RN,Senador Elói de Souza,6167.0,9806.43,-6.03595299299997,-35.692792927999996
RN,Serra Caiada,10646.0,10267.49,-6.10588420399995,-35.712406071000004
RN,Sítio Novo,5600.0,9604.36,-6.10395769399997,-35.9110741869999
PE,Abreu e Lima,100698.0,17123.06,-7.903838883999979,-34.907311813
PB,Itatuba,11069.0,14022.61,-7.37834262399997,-35.627723607
RN,Tangará,16008.0,12605.26,-6.19759144399995,-35.80032335800001
PB,Arara,13613.0,8250.02,-6.82958352499998,-35.758793458
PB,Areia,22493.0,11435.64,-6.96536199399998,-35.702633673
PB,Areial,7054.0,8871.24,-7.049889720999939,-35.925155073
PB,Cabaceiras,5710.0,20400.58,-7.49187227899995,-36.2881313139999
PB,Caraúbas,4206.0,10032.69,-7.728289843999959,-36.493481460999895
PB,Damião,5409.0,9294.97,-6.63179846399993,-35.905180021
PB,Esperança,33386.0,15193.67,-7.01866023399998,-35.8595072329999
PB,Matinhas,4528.0,11933.63,-7.122040442999949,-35.7701386589999
RN,São Bento do Trairí,4541.0,10047.06,-6.34220891899997,-36.0855899439999
RN,Serra Negra do Norte,8105.0,14666.95,-6.6657795129999595,-37.398763581
RN,Acari,11106.0,12785.32,-6.43531837499995,-36.640892525
RN,Carnaúba dos Dantas,8297.0,14267.01,-6.5571809539999295,-36.5912117029999
RN,Coronel Ezequiel,5501.0,9545.02,-6.385867418999959,-36.217511821
RN,Jaçanã,9341.0,9248.51,-6.42791502399996,-36.203768354000005
RN,Parelhas,21611.0,17071.27,-6.6918254959999794,-36.662320021000006
RS,Barão de Cotegipe,6616.0,51643.3,-27.622816316,-52.378587653999894
RS,Barra Funda,2563.0,64388.93,-27.9229679789999,-53.037708970999894
RS,Arroio Grande,18185.0,62222.04,-32.2380000009999,-53.0869999849999
PB,Cacimba de Areia,3708.0,10546.32,-7.128790211999959,-37.156592442
PB,Cacimbas,7225.0,9287.68,-7.21160230499993,-37.0574231759999
PB,Camalaú,6048.0,11845.53,-7.889806714999959,-36.825723636
PB,Desterro,8332.0,8727.17,-7.28788802999998,-37.086398958
PB,Junco do Seridó,7238.0,13346.55,-6.99416442799998,-36.714188984
RN,Equador,6064.0,13518.66,-6.94522674699994,-36.717231559
RN,Ipueira,2264.0,15428.38,-6.8160265929999495,-37.1988620669999
RN,Jardim de Piranhas,15044.0,14179.47,-6.377062384999929,-37.3499483799999
RN,Timbaúba dos Batistas,2427.0,17972.11,-6.46245312599996,-37.273306949
PB,Areia de Baraúnas,2105.0,12396.9,-7.1237786679999395,-36.945018176
PB,Assunção,4067.0,11924.64,-7.07499906299995,-36.731397076999905
PE,Betânia,12811.0,8220.08,-8.27352989199994,-38.0365055359999
PE,Carnaubeira da Penha,13117.0,6359.89,-8.31973271099997,-38.743838679
RS,Aceguá,4981.0,91994.39,-31.86751751518382,-54.163801189468806
RS,Tio Hugo,3078.0,56784.45,-28.5794589999999,-52.5992009969999
RS,Rolador,2270.0,71327.05,-28.25644059,-54.817472390999896
MT,Santa Rita do Trivelato,3602.0,343161.27,-13.816183311,-55.274178929
BA,Dias d'Ávila,83705.0,36442.65,-12.6139698169999,-38.3009710429999
RN,Caicó,68726.0,20295.8,-6.46256257999994,-37.0956104529999
RN,Cruzeta,7968.0,15454.6,-6.41106215099995,-36.7850352999999
RN,Jardim do Seridó,12397.0,16777.7,-6.5856794469999596,-36.776402135000005
PE,Caetés,29065.0,14578.59,-8.77245563899993,-36.626290692999895
PE,Calçado,10983.0,10497.94,-8.74098419899997,-36.335972610999896
PE,Canhotinho,24743.0,10232.04,-8.88152462799997,-36.191783367999996
PE,Capoeiras,20048.0,12173.46,-8.74058958299997,-36.6279805619999
PE,Altinho,22996.0,9679.46,-8.48778435099996,-36.0595767799999
PE,Angelim,11301.0,12588.25,-8.888201696999941,-36.288062970999896
PE,Jucati,11545.0,11197.05,-8.70673087199998,-36.488895553000006
RN,João Câmara,35360.0,35911.78,-5.53911710899996,-35.8185865029999
RN,Poço Branco,15646.0,8427.81,-5.62076143899998,-35.660557781
PE,Paranatama,11608.0,24618.65,-8.92056956499994,-36.659522130999996
PE,Saloá,15880.0,10771.47,-8.97390294899998,-36.6897159059999
RN,Bento Fernandes,5552.0,15927.67,-5.69237048599996,-35.820718768999896
PE,Alagoinha,14798.0,9794.9,-8.46489111999995,-36.776069847
PE,Arcoverde,75295.0,16141.61,-8.41790864499995,-37.057144879000006
PE,Buíque,59448.0,9235.21,-8.62301754599997,-37.155808549
PE,Manari,22110.0,6293.67,-8.961018605999929,-37.624570317
PE,Pedra,22716.0,13488.22,-8.49994685899998,-36.945902667
RN,Jardim de Angicos,2600.0,24766.12,-5.6509167923842085,-35.9709674092096
PE,Cabrobó,34778.0,12676.5,-8.51122075499995,-39.3135095379999
PE,Floresta,33488.0,13294.71,-8.599291662999969,-38.5720132069999
PE,Inajá,24034.0,8191.73,-8.901785721999941,-37.825440445
MG,Almenara,42380.0,15924.96,-16.1767174079999,-40.693820671
PI,Madeiro,8372.0,8975.26,-3.48473933999998,-42.503138107
PI,Matias Olímpio,10979.0,8703.44,-3.7149233689999597,-42.55506467
PE,Lagoa Grande,26090.0,17510.3,-8.99463153399995,-40.270240061
MA,Cururupu,32559.0,8126.4,-1.8230475169999598,-44.868191657
MG,Águas Vermelhas,13656.0,17329.28,-15.746614801,-41.458389882999896
MG,Curral de Dentro,7867.0,10226.6,-15.93561798,-41.855322841
MG,Divisa Alegre,6946.0,25656.27,-15.722615781999899,-41.34472296
MG,Bandeira,4738.0,12476.94,-15.88575566685797,-40.559956451677564
MG,Berizal,4792.0,12734.93,-15.613149448201076,-41.74268260429982
MG,Cachoeira de Pajeú,9470.0,13262.75,-15.967238789000001,-41.496621633000004
PI,São José do Peixe,3737.0,11462.74,-7.49395016799997,-42.567856718
MA,Centro Novo do Maranhão,22056.0,9104.32,-2.14093330499998,-46.123379426999996
MA,Centro do Guilherme,13876.0,7477.72,-2.45052074099993,-46.0387054989999
MA,Santa Luzia,73105.0,10171.02,-3.96729540399997,-45.6633007839999
BA,Coaraci,16128.0,11847.5,-14.638369982,-39.550633459000004
PI,Angical do Piauí,6779.0,9846.26,-6.089535739999969,-42.73797712
PI,Água Branca,17525.0,13921.29,-5.89184529199997,-42.634111402
TO,Araguaína,186245.0,28129.89,-7.195377137999969,-48.21004207
TO,Goiatins,13169.0,17535.44,-7.71454458499994,-47.316463421
TO,Itaguatins,5801.0,14240.76,-5.776607312999939,-47.479850744
TO,Maurilândia do Tocantins,3470.0,16112.55,-5.95491539499994,-47.5100445379999
TO,São Miguel do Tocantins,12445.0,20555.57,-5.5520446919999795,-47.577446044999895
TO,Sítio Novo do Tocantins,8965.0,14820.08,-5.60330681099992,-47.638725025
TO,Augustinópolis,18870.0,16169.5,-5.46717566699994,-47.886996542000006
TO,Axixá do Tocantins,9817.0,14372.21,-5.61798390999996,-47.7721220769999
TO,Carrasco Bonito,4165.0,12139.52,-5.3220572489999505,-48.0378453709999
MG,Francisco Sá,26459.0,17077.75,-16.479462836,-43.494442137
MG,Grão Mogol,15943.0,48352.82,-16.5637592369999,-42.895227872
MG,Indaiabira,7328.0,11914.84,-15.492331221,-42.197765876999895
MG,Catuti,4944.0,11497.57,-15.3611503229999,-42.96268722799989
MG,Capitão Enéas,15388.0,32591.49,-16.322365669,-43.71564695
MG,Coronel Murta,9209.0,13016.09,-16.617019301,-42.186451383
TO,Dueré,4686.0,43697.08,-11.3415220389999,-49.2682447079999
MG,Espinosa,31603.0,11517.31,-14.925470791,-42.812751888
MG,Janaúba,72374.0,22157.83,-15.802379277999899,-43.310656883
MG,Cristália,5992.0,9875.05,-16.717948308,-42.864413852
PI,Santa Luz,5903.0,10584.41,-8.95150700499994,-44.128300441
RN,São Miguel do Gostoso,10441.0,47183.26,-5.12502005299996,-35.6424106429999
RN,Tibau do Sul,14694.0,28299.48,-6.18737615899994,-35.09211461099989
MG,Fruta de Leite,5232.0,8999.57,-16.11713557,-42.528105942
MG,Gameleiras,5084.0,11278.35,-15.083809431,-43.120320121999995
MG,Campo Azul,3830.0,10616.58,-16.506002158999898,-44.8114023529999
MG,Comercinho,6624.0,10285.11,-16.298083994,-41.795525080999894
MG,Coração de Jesus,26620.0,10251.33,-16.686943965999898,-44.36083568299989
MG,Brasília de Minas,32460.0,11627.4,-16.2119096769999,-44.4280259669999
PB,Lucena,13344.0,16716.6,-6.89815389399996,-34.873050701
RN,Arês,14526.0,26616.72,-6.19696851099997,-35.162873909000005
RN,Baía Formosa,9373.0,34677.49,-6.37116958399997,-35.007171813999896
RN,Bom Jesus,10323.0,10591.65,-5.98523911699994,-35.5828375629999
RN,Brejinho,12873.0,10833.97,-6.1953662709999495,-35.3561503769999
RN,Ceará-Mirim,74268.0,13494.44,-5.63756373499996,-35.421758735000004
RN,Extremoz,29282.0,19480.39,-5.70424774199995,-35.289516971
PE,Custódia,37633.0,15780.83,-8.087653428999939,-37.6417014789999
PB,Baía da Traição,9197.0,11727.05,-6.6904005479999595,-34.933551582
PI,Batalha,26951.0,9305.89,-4.020609892999969,-42.086166684
PI,Luzilândia,25521.0,9451.85,-3.46170253799994,-42.372174644999994
PI,Morro do Chapéu do Piauí,6825.0,9150.19,-3.74342665099994,-42.3103629739999
PI,São João do Arraial,8085.0,8439.67,-3.81572346899998,-42.45192021
MA,Carutapera,24095.0,8385.15,-1.20126658499993,-46.018868983999894
MA,Gonçalves Dias,17953.0,8360.04,-5.15391947699993,-44.299752032
MG,Fronteira dos Vales,4542.0,10777.9,-16.890115062999897,-40.924994409
MG,Itaipé,12910.0,9419.18,-17.4002297979999,-41.669283048000004
MG,Mantena,27651.0,17248.55,-18.778282213,-40.9818906289999
MG,Monte Formoso,4939.0,8919.75,-16.868064408,-41.254712502
MG,Nanuque,40583.0,19924.58,-17.8433202129999,-40.3509522909999
MG,Nova Belém,3067.0,27201.82,-18.492284503,-41.1051395979999
MG,Novo Cruzeiro,31339.0,10544.29,-17.4669604559999,-41.879560471999895
MG,Novo Oriente de Minas,10800.0,11256.56,-17.412942196999897,-41.21826865599989
MG,Ouro Verde de Minas,5895.0,11503.59,-18.069991676999898,-41.2745155669999
MG,Padre Paraíso,20346.0,10514.08,-17.072771761687463,-41.48494540170322
MG,Pavão,8390.0,11093.87,-17.4288889009999,-41.0006794339999
MG,Poté,16675.0,10122.67,-17.8082788169999,-41.7884807659999
MG,Caraí,23872.0,8814.85,-17.1859482959999,-41.6958774789999
MG,Crisólita,6814.0,11215.05,-17.237617655,-40.91187508099989
MG,Capitão Andrade,5559.0,10939.49,-19.070780274,-41.8615049439999
MG,Catuji,6206.0,13420.7,-17.3005559289999,-41.5209055329999
MG,Conselheiro Pena,22975.0,16708.53,-19.1744177379999,-41.4708414289999
MG,Cuparaque,5026.0,14734.12,-18.9688473279999,-41.0984442109999
PE,Ibimirim,29585.0,11158.32,-8.538011935999979,-37.696029986999996
PE,Tupanatinga,27793.0,8172.21,-8.75357903699995,-37.343274251000004
MG,Galiléia,6764.0,16814.67,-18.9991916909999,-41.5394905399999
MG,Ataléia,12496.0,15926.39,-18.043387762885118,-41.1114715099378
MG,Botumirim,6259.0,12103.05,-16.864986437,-43.009686819
TO,Esperantina,11280.0,10525.18,-5.36611756099995,-48.537930343
TO,Centenário,2966.0,21765.64,-8.961605550999929,-47.338079039
TO,Itapiratins,3814.0,44971.71,-8.38481206899996,-48.106632235999896
TO,Lizarda,3727.0,17797.6,-9.59540561599994,-46.67319162
TO,São Félix do Tocantins,1610.0,22696.11,-10.160900285,-46.6660948539999
MG,Berilo,11813.0,9551.5,-16.952247662999998,-42.464526274
MG,Chapada do Norte,15334.0,7247.1,-17.0869998939999,-42.5350021269999
MG,Coluna,8810.0,13756.65,-18.231655224814844,-42.8399337666757
MG,Conceição de Ipanema,4581.0,17685.15,-19.9300920139999,-41.693175442999895
MG,Divinolândia de Minas,7655.0,10750.55,-18.802344405999897,-42.6137336219999
RJ,Italva,15387.0,27215.6,-21.4272354169999,-41.6933597529999
RJ,São João da Barra,36731.0,269169.78,-21.6367412469999,-41.046321471999896
MG,Alvinópolis,15135.0,22478.72,-20.110799653,-43.0564778339999
MG,Carbonita,9423.0,23419.5,-17.526999917,-43.0160015419999
MG,Chalé,5695.0,20049.37,-20.0458179469999,-41.687660068
MG,Aricanduva,5305.0,12645.43,-17.8669999119999,-42.557002086999894
MG,Abre Campo,13434.0,19553.86,-20.3008160929999,-42.475903925999894
MG,Alvorada de Minas,3605.0,17990.28,-18.733241581,-43.3659564559999
MG,Congonhas do Norte,5047.0,9768.27,-18.8069999989999,-43.6810000019999
MG,Datas,5431.0,13618.93,-18.4477094279999,-43.659226647999894
MG,Diamantina,47924.0,20537.92,-18.2489999989999,-43.6000000029999
MG,Bocaiúva,50521.0,24252.97,-17.107999999,-43.815000002999895
MG,Canaã,4533.0,17088.06,-20.685912879999897,-42.620566966999895
MG,Coimbra,7631.0,18325.94,-20.858695922999896,-42.802393001999896
MG,Baldim,7780.0,25871.06,-19.288,-43.956999999999894
MG,Barra Longa,4905.0,16702.85,-20.2833297419999,-43.0416882829999
MG,Caeté,45364.0,23695.84,-19.8799999999999,-43.669999999999895
MG,Cajuri,3961.0,24569.91,-20.7866962619999,-42.7915870389999
MG,Acaiaca,3995.0,16247.06,-20.362553503,-43.1429272469999
MG,Amparo do Serra,4643.0,12045.13,-20.507944152999897,-42.8010449329999
MG,Araponga,8467.0,14443.79,-20.6674276529999,-42.5214469989999
MG,Central de Minas,7059.0,12334.73,-18.7625848659999,-41.3064116339999
MG,Cipotânea,6811.0,10762.85,-20.9039871109999,-43.365878887
MG,Diogo de Vasconcelos,3779.0,11363.34,-20.486574816999898,-43.1981227599999
MG,Divino das Laranjeiras,4969.0,12416.03,-18.7760667639999,-41.481241532999896
MG,Capela Nova,4616.0,13534.64,-20.922948880999897,-43.6180234299999
MG,Caranaíba,3150.0,13169.27,-20.8759536399999,-43.7390492519999
MG,Caratinga,93124.0,24518.79,-19.789999967999897,-42.1390027899999
MG,Catas Altas da Noruega,3665.0,11130.5,-20.689319498999897,-43.498528528
MG,Belo Vale,7723.0,36243.16,-20.4078878109999,-44.0241765979999
MG,Brás Pires,4255.0,11758.46,-20.848407381,-43.245166221999895
MG,Congonhas,55836.0,73709.5,-20.5000202179999,-43.858042194999896
MG,Conselheiro Lafaiete,130584.0,23881.55,-20.660108411999897,-43.7864298349999
MG,Divino,20020.0,15957.14,-20.6080124609999,-42.1439394029999
MG,Felixlândia,15528.0,18106.34,-18.7579999999999,-44.8990000009999
MG,Betim,450024.0,73624.78,-19.9679999999999,-44.197999999999894
MG,Bom Jesus do Galho,14792.0,11568.99,-19.8289999659999,-42.3160024869999
MG,Bonfim,6852.0,19772.69,-20.3268566249999,-44.2389992419999
MG,Brumadinho,41208.0,112233.99,-20.143105930999898,-44.2000643619999
MG,Bugre,3984.0,11937.36,-19.4244694779999,-42.2562212079999
MG,Divinópolis,242505.0,34355.36,-20.1387004949999,-44.884230728999896
MG,Lagoa da Prata,53236.0,37310.73,-20.0229999999999,-45.5439999999999
MG,Entre Rios de Minas,15458.0,17481.31,-20.6710560559999,-44.0659486249999
MG,Lassance,6494.0,29649.11,-17.886999999,-44.577999999999896
MG,Nova Serrana,108241.0,24352.06,-19.8759999999999,-44.983999999999895
MG,Carandaí,25831.0,29108.4,-20.9538309629999,-43.8061067349999
MG,Casa Grande,2251.0,30760.19,-20.7930117209999,-43.930079901999896
MG,Claro dos Poções,7478.0,11196.9,-17.079999999999902,-44.2090000019999
MG,Augusto de Lima,4833.0,18423.57,-18.108999998999902,-44.26700000099989
MG,Buenópolis,10342.0,17474.86,-17.8729999999999,-44.1800000009999
MG,Buritizeiro,28184.0,26118.73,-17.3509999999999,-44.96200000099989
MG,Santo Antônio do Monte,28603.0,29473.46,-20.0869999999999,-45.2939999999999
MG,Carmo da Mata,11546.0,23014.9,-20.558015022999896,-44.871142211999896
MG,Carmo do Cajuru,22900.0,27469.01,-20.187080419999898,-44.7702627549999
MG,Carmópolis de Minas,19756.0,23365.28,-20.5410122099999,-44.6349768079999
MG,Cláudio,29093.0,38451.85,-20.4430949439999,-44.76587989
MG,Crucilândia,5072.0,16383.73,-20.395116881999897,-44.3377881939999
MG,Desterro de Entre Rios,7266.0,35948.85,-20.6600090979999,-44.332934001999895
RJ,Cordeiro,22152.0,20592.99,-22.027719428999898,-42.3639340479999
RJ,Rio das Ostras,159529.0,56096.82,-22.5238542319999,-41.9486955079999
MG,Alto Rio Doce,10723.0,16798.64,-21.020000191,-43.4116065499999
MG,Araçaí,2360.0,25422.8,-19.199,-44.2479999999999
MG,Aracitaba,2056.0,15253.67,-21.3392842019999,-43.3797998679999
MG,Dores do Turvo,4202.0,15908.49,-20.974263828999902,-43.1897955439999
MG,Belo Oriente,27277.0,77527.64,-19.2207166949999,-42.4871568859999
MG,Braúnas,4737.0,44982.9,-19.0559999419999,-42.7160018839999
MG,Catas Altas,5465.0,920833.97,-20.07413794,-43.4079198269999
MG,Chácara,3216.0,14661.46,-21.6726700009999,-43.2202678599999
MG,Cordisburgo,8903.0,16419.95,-19.1249999999999,-44.3209999999999
MG,Coronel Pacheco,3095.0,19419.15,-21.5874745989999,-43.261625959
MG,Córrego Novo,2688.0,14332.74,-19.8318733519999,-42.4022527249999
MG,Divinésia,3430.0,18575.93,-20.990428852999898,-43.0036427789999
MG,Antônio Carlos,11471.0,21088.32,-21.3201025199999,-43.750494159999896
MG,Barbacena,139061.0,25335.18,-21.215814155999897,-43.7691583779999
MG,Belmiro Braga,3422.0,17992.57,-21.950289996319377,-43.41671551749067
MG,Bias Fortes,3282.0,12668.63,-21.6041111999999,-43.7572352049999
MG,Carrancas,4052.0,43842.86,-21.4881109749999,-44.644053664
MG,Carvalhos,4445.0,18141.26,-21.999943136000002,-44.4624864239999
MG,Cruzília,15529.0,20461.59,-21.838311342999898,-44.8097702879999
MG,Desterro do Melo,2867.0,17657.89,-21.145734754999896,-43.51865821399989
MG,Passa Vinte,2024.0,20794.2,-22.2092749079999,-44.2350679749999
MG,Carmo da Cachoeira,12193.0,26379.28,-21.461000000000002,-45.2239999989999
MG,Caxambu,21566.0,17204.61,-21.9796226899999,-44.930705439
MG,Bom Sucesso,17612.0,25271.28,-21.03090993,-44.7569165359999
MG,Baependi,19249.0,19795.44,-21.9618578269999,-44.8918292849999
MG,Boa Esperança,40308.0,26261.54,-21.0899999999999,-45.565999999999896
MG,Bocaina de Minas,5088.0,15766.67,-22.1696084676486,-44.3973057604562
MG,Campo do Meio,11648.0,19843.07,-21.1069999999999,-45.8299999999999
MG,Campos Gerais,28908.0,24372.14,-21.235,-45.758999999999894
MG,Candeias,14890.0,24926.08,-20.7669999999999,-45.276
MG,Capitólio,8693.0,37783.2,-20.615000000000002,-46.050000000000004
MG,Cristais,13060.0,22628.65,-20.8759999999999,-45.5189999999999
MG,Aguanil,4557.0,20762.54,-20.942999999999902,-45.392999999999894
MG,Iguatama,7901.0,74348.83,-20.1739999999999,-45.711000000000006
MG,Alfenas,80973.0,43049.74,-21.4289999999999,-45.946999999999896
MG,Antônio Prado de Minas,1577.0,18117.22,-21.0165513539999,-42.110116358999896
MG,Campo Belo,54338.0,22905.64,-20.8969999999999,-45.276999999999894
MG,Cambuquira,12810.0,28950.98,-21.8519999999999,-45.29599999999989
MG,Campanha,16855.0,26097.7,-21.836000000000002,-45.401
MG,Alpinópolis,20059.0,26133.79,-20.8639999999999,-46.3879999999999
MG,Cássia,17741.0,24600.35,-20.5829999919999,-46.9220000589999
MG,Cataguases,75942.0,21748.3,-21.3904783869999,-42.6953181329999
MG,Claraval,4873.0,37352.16,-20.4000365909999,-47.285768647999895
MG,Consolação,1786.0,17609.85,-22.551388881999898,-45.9211112699999
MG,Córrego do Bom Jesus,3685.0,12384.73,-22.6302777649999,-46.020000288999896
MG,Delfinópolis,7146.0,34599.14,-20.3439999849999,-46.854000125999896
MG,Água Comprida,1986.0,115725.51,-20.055999997,-48.1090000159999
MG,Cachoeira Dourada,2720.0,99124.77,-18.5149999989999,-49.501000002999895
SP,São Bento do Sapucaí,10907.0,37283.14,-22.6889999919999,-45.73100019099989
MG,Capinópolis,16294.0,40910.84,-18.6819999989999,-49.5700000029999
MG,Descoberto,5044.0,16206.3,-21.4581663819999,-42.9663516219999
MG,Delfim Moreira,8007.0,15700.68,-22.5091666609999,-45.2800002849999
MG,Careaçu,6826.0,25519.59,-22.0430555499999,-45.699166862999895
MG,Conceição da Aparecida,10351.0,26487.93,-21.0939999999999,-46.204
MG,Conceição das Pedras,2814.0,21692.56,-22.1599999899999,-45.454722460999896
MG,Conceição dos Ouros,11852.0,18994.87,-22.413055551,-45.798055737999896
MG,Congonhal,12209.0,18053.14,-22.1527777709999,-46.0394445809999
MG,Cristina,10211.0,22906.28,-22.2119999889999,-45.2640002859999
MG,Areado,15288.0,20234.71,-21.358999999999902,-46.145999999999894
MG,Brazópolis,14364.0,13786.69,-22.4736111009999,-45.607500212999895
MG,Cabo Verde,14074.0,20665.25,-21.471999999999902,-46.395999999999894
MG,Cachoeira de Minas,11609.0,46258.02,-22.3549999909999,-45.779000180999894
MG,Albertina,3015.0,51065.05,-22.2009999929999,-46.6160000799999
MG,Camanducaia,21831.0,45365.42,-22.7552777729999,-46.144722349999896
MG,Arceburgo,10990.0,31547.24,-21.3661583129999,-46.9393642779999
MG,Bandeira do Sul,5808.0,14907.61,-21.728,-46.385999999999896
MG,Bom Jesus da Penha,4270.0,45924.06,-21.0169999999999,-46.5229999999999
MG,Bom Repouso,10527.0,15221.01,-22.471111102,-46.14500012799989
MG,Borda da Mata,19809.0,18923.96,-22.274166661999896,-46.1652779049999
MG,Botelhos,14927.0,21834.65,-21.645137573999897,-46.39612964999989
MG,Bueno Brandão,10982.0,21921.18,-22.4409999929999,-46.3510001049999
MG,Campestre,21052.0,23104.32,-21.711000000000002,-46.245999999999896
MG,Dionísio,7493.0,12128.99,-19.842999920999898,-42.777003653
MG,Alto Jequitibá,8286.0,15158.56,-20.4271252009999,-41.9635605669999
MG,Antônio Dias,9233.0,96894.13,-19.6529388729999,-42.86931155999989
MG,Caputira,9318.0,15427.23,-20.172901259000003,-42.2684266249999
MG,Carlos Chagas,18516.0,25642.26,-17.7039788419999,-40.76694709499989
MG,Coronel Fabriciano,110709.0,18029.42,-19.518999952999902,-42.6290020079999
MG,Fronteira,18866.0,49568.1,-20.283168256,-49.201194844999904
MG,Guaraciaba,10307.0,11179.62,-20.571753461999897,-43.0074926199999
MG,Itamonte,15844.0,74613.56,-22.2813636859999,-44.870394190999896
MG,Itanhandu,15511.0,30315.87,-22.2979851789999,-44.936606933
MG,Jaguaraçu,3151.0,34860.43,-19.648106030999898,-42.751147069
MG,Machacalis,7112.0,15811.47,-17.0771185539999,-40.7191924869999
MG,Bertópolis,4609.0,11671.08,-17.0611752479999,-40.5749647779999
MG,Capetinga,6860.0,30215.68,-20.6159999929999,-47.054000050999896
PR,Abatiá,7360.0,30140.55,-23.3039999999999,-50.312999999999896
PR,Arapoti,28480.0,50824.66,-24.1412015469999,-49.824009267
PR,Barra do Jacaré,2781.0,53994.67,-23.115000000000002,-50.181000000999894
PR,Bocaiúva do Sul,13308.0,21066.48,-25.2114710279999,-49.1095258309999
PR,Cambará,25569.0,32034.21,-23.0459999999999,-50.074000000000005
MG,Frutal,60508.0,40872.58,-20.0249999989999,-48.94100000499989
SP,Queluz,13788.0,28178.35,-22.5372246549999,-44.7749550769999
MG,Planura,12445.0,46149.3,-20.137999997999902,-48.702000006999896
MG,Cambuí,30068.0,62049.99,-22.6122222119999,-46.057500139999895
MG,Cana Verde,5585.0,14348.74,-21.021,-45.181999999999896
PR,Castro,72125.0,50347.9,-24.7909999999999,-50.011999999999894
SC,Sombrio,31084.0,29282.87,-29.1060160019999,-49.6355229679999
SC,Jacinto Machado,10337.0,51246.68,-29.0024758679999,-49.7645720129999
SC,Morro Grande,2884.0,50318.4,-28.8010274839999,-49.7190236819999
MT,Confresa,32076.0,47721.27,-10.6513843139999,-51.571868786
MT,Canabrava do Norte,4711.0,56716.7,-11.050014323000001,-51.826582688
AM,Manicoré,57405.0,11955.04,-5.8110072222222,-61.2940205555555
AM,Japurá,1755.0,48893.98,-1.8808422181501008,-66.99690366411726
SP,Ouroeste,10712.0,51226.69,-19.997551880999897,-50.3745861809999
MG,Carneirinho,10103.0,40332.68,-19.6979999999999,-50.687999999999896
MG,Contagem,673849.0,54136.41,-19.932000000000002,-44.053999999999895
MG,Cordislândia,3546.0,32084.04,-21.7929999999999,-45.7009999989999
MG,Carmo de Minas,15031.0,19322.94,-22.1222222089999,-45.1291669909999
MG,Carvalhópolis,3614.0,19752.88,-21.7779999999999,-45.841
MT,Dom Aquino,8087.0,83260.65,-15.809899,-54.922298
MG,Argirita,2681.0,14954.09,-21.6120753979999,-42.835435153999896
MG,Cachoeira da Prata,3580.0,14487.2,-19.5249999999999,-44.454
MG,Caetanópolis,11869.0,26561.99,-19.299207968999998,-44.4133061839999
SP,Morro Agudo,33598.0,36487.83,-20.730999995999902,-48.0580000159999
SP,Santa Bárbara d'Oeste,195278.0,40073.67,-22.7539999959999,-47.4140000339999
SP,Santa Gertrudes,27850.0,139885.74,-22.4569999959999,-47.530000029
SP,Taquarivaí,5968.0,61548.88,-23.9239999999999,-48.693000000999895
SP,Álvares Machado,25078.0,28306.72,-22.079012531999897,-51.4720998649999
SP,Hortolândia,237570.0,77357.5,-22.8579999949999,-47.220000041999896
SP,Itatinga,21139.0,18764.35,-23.1019999999999,-48.61599999999989
SP,Limeira,310783.0,51678.31,-22.5649999959999,-47.402000033999904
SP,Nova Odessa,61716.0,65145.09,-22.7779999959999,-47.296000037999896
SP,Paranapanema,20588.0,45907.58,-23.389,-48.723
SP,Ribeirão Grande,7686.0,15221.41,-24.0989999999999,-48.365
SP,Anhumas,4172.0,25316.58,-22.295017808999898,-51.386992858999896
SP,Pirapozinho,27974.0,33165.84,-22.2748540999999,-51.5000377099999
SP,Tarabai,7609.0,22125.16,-22.3030244959999,-51.5590330409999
MT,Araguainha,909.0,30845.7,-16.855729389,-53.0344871459999
SP,Santo Expedito,3159.0,14964.67,-21.850315807,-51.393594506999904
MS,Santa Rita do Pardo,7948.0,59470.28,-21.302941615999902,-52.831070426999894
MS,Taquarussu,3588.0,50790.26,-22.4880150269999,-53.3513245279999
SP,Ribeirão Branco,15984.0,37255.94,-24.2209999999999,-48.7659999999999
SP,Rosana,15929.0,121065.75,-22.5800005999999,-53.05916448199989
MG,Carmésia,2660.0,14958.01,-19.0849074859999,-43.1385652799999
PR,Amaporã,6405.0,18911.54,-23.0949486889999,-52.785955658999896
PR,Cafezal do Sul,3975.0,37483.08,-23.9026703739999,-53.5155287019999
PR,Cidade Gaúcha,12939.0,33349.14,-23.381921024999897,-52.944005436999895
PR,Guaporema,2239.0,34904.03,-23.3386283449999,-52.777185792999894
PR,Iporã,13642.0,43768.84,-24.0049671219999,-53.7123423369999
MG,Barão de Monte Alto,5311.0,11883.74,-21.245225211743552,-42.23670405557558
MG,Bela Vista de Minas,10269.0,55337.41,-19.829999958999903,-43.091001469999895
MG,Bom Jesus do Amparo,6182.0,25935.64,-19.7067313909999,-43.474372005999996
MG,Conceição do Mato Dentro,17438.0,519040.92,-19.036999948000002,-43.4250011549999
MG,Andrelândia,12189.0,23950.85,-21.7375682619999,-44.3092640159999
AP,Laranjal do Jari,52302.0,21693.0,-0.840127280854097,-52.524050832119194
RJ,Japeri,106296.0,14395.69,-22.647696455146267,-43.65326265147527
MS,Pedro Gomes,7568.0,36934.26,-18.100601642,-54.5536011409999
SC,Siderópolis,14176.0,47931.8,-28.591571066999897,-49.4282387489999
SC,Laurentino,7154.0,62169.55,-27.216909294999898,-49.732207855000006
MG,Arantina,2779.0,31861.03,-21.9152975139999,-44.2527337399999
SP,Itaoca,3332.0,16009.98,-24.6399999999999,-48.8429999999999
MG,Bom Jardim de Minas,6444.0,19828.35,-21.949008280999898,-44.187836994
RS,Campestre da Serra,3402.0,60171.09,-28.796376186999897,-51.0951269539999
RS,Esmeralda,3291.0,119373.62,-28.057033922999896,-51.189441873999996
RS,Ipê,6736.0,44326.21,-28.819784451999897,-51.2812180079999
RS,Muitos Capões,3184.0,352413.31,-28.317377055999902,-51.1846323159999
RS,Vacaria,66916.0,48503.58,-28.508241162999898,-50.939866128999896
PR,Alto Paraíso,2630.0,43223.91,-23.5074862229999,-53.7277730629999
RS,Arvorezinha,10422.0,32263.13,-28.8715538499999,-52.180753225999894
MS,Guia Lopes da Laguna,9754.0,37345.58,-21.457999987999898,-56.1139998389999
RS,Camargo,2750.0,189265.97,-28.5879363749999,-52.2039221509999
MS,Bonito,22401.0,53761.59,-21.120999984999898,-56.481999776
MS,Ponta Porã,95320.0,52713.01,-22.5359999929999,-55.725999886999894
MS,Iguatemi,16273.0,49855.39,-23.682735164999897,-54.562508646999895
RS,Vicente Dutra,4530.0,27927.91,-27.1676835759999,-53.404705985999996
PR,Ampére,19466.0,38549.37,-25.919368024999898,-53.4735061839999
RS,Barra do Guarita,3266.0,17394.57,-27.1905982999999,-53.71200994499989
RS,Campinas do Sul,5422.0,73663.3,-27.717572882000002,-52.62462643800001
RS,Engenho Velho,932.0,78554.93,-27.708570032,-52.912227169999895
RS,Entre Rios do Sul,2724.0,76180.58,-27.530804102999898,-52.73112935299989
RS,Erval Grande,4780.0,31565.21,-27.392202537999896,-52.5693310219999
RS,Braga,3271.0,40032.87,-27.617598581999896,-53.7400596319999
RS,Araricá,5840.0,40484.64,-29.6139758239999,-50.924981540999894
RS,Arambaré,3544.0,80442.31,-30.916700347527,-51.5028760007712
RS,Barão,6232.0,49438.57,-29.376383000999898,-51.4993923549999
RS,Camaquã,66686.0,40843.08,-30.855306499395198,-51.8090903474098
RS,Colorado,3088.0,109506.71,-28.5239999999999,-52.99399999399989
MS,São Gabriel do Oeste,27660.0,80686.47,-19.392131035000002,-54.578235197
RS,Amaral Ferrador,7136.0,20688.31,-30.874999999,-52.25299999999989
SC,Peritiba,2733.0,44253.39,-27.373656655999902,-51.9068413909999
SP,Ouro Verde,8676.0,15558.53,-21.4889863479999,-51.700011800999896
SP,Panorama,15944.0,19933.87,-21.355922961999898,-51.85993709299989
SC,Matos Costa,2442.0,25628.34,-26.472488542999898,-51.149403768999896
SC,Lebon Régis,12122.0,34381.16,-26.9329401709999,-50.691313723
SC,Ponte Alta do Norte,3426.0,48636.59,-27.1625280059999,-50.4677004779999
SC,Timbó Grande,8003.0,37894.78,-26.616359280999898,-50.6697505159999
RS,Constantina,9903.0,43658.25,-27.7332170289999,-52.993996591999895
RS,Entre-Ijuís,8350.0,82344.41,-28.36,-54.267999999999894
RS,Eugênio de Castro,2310.0,175516.28,-28.5249999999999,-54.148999999999894
RS,Ibiaçá,4690.0,78314.21,-28.0571356489999,-51.8572393229999
RS,Boa Vista das Missões,2087.0,114288.93,-27.662831384999897,-53.3152535239999
MS,Costa Rica,21456.0,97722.89,-18.5440000019999,-53.1289999989999
MS,Camapuã,13675.0,46584.73,-19.534046205000003,-54.043727600999894
MS,Nova Alvorada do Sul,22967.0,85497.54,-21.4659999949999,-54.3839999739999
SP,Nova Independência,4135.0,51548.89,-21.104020668999897,-51.4899938619999
RS,Arroio do Meio,21121.0,72750.17,-29.401,-51.944999999999894
RS,Brochier,5132.0,22934.5,-29.5527670359999,-51.5963852249999
AM,Benjamin Constant,44873.0,8664.03,-4.37592388888891,-70.03075277777779
AM,Atalaia do Norte,20868.0,8862.72,-4.36783055555554,-70.1911505555555
AM,Amaturá,11934.0,9960.76,-3.3631866666666497,-68.1995833333333
AM,Eirunepé,36121.0,15726.02,-6.66255444444442,-69.8708122222222
AM,Ipixuna,31172.0,6945.94,-7.05099944444441,-71.68959166666659
AM,Boca do Acre,34958.0,14668.9,-8.7464611111111,-67.39753444444439
SC,Ouro,7251.0,34837.08,-27.3342023089999,-51.6047984989999
RS,Gaurama,5447.0,51913.23,-27.587664960946917,-52.10241505163387
RS,Marau,45523.0,67219.06,-28.4420147039999,-52.20618608099989
RS,Soledade,31067.0,45230.98,-28.822071756999897,-52.4935780779999
PR,Rancho Alegre D'Oeste,2602.0,90246.03,-24.3097790959999,-52.953720669999896
PR,Apucarana,137438.0,28189.54,-23.5510079159999,-51.451063209999894
RJ,Niterói,516981.0,128333.01,-22.891516705999898,-43.0822825419999
RJ,São Gonçalo,1098357.0,18504.81,-22.823070031999897,-43.018222332999905
RJ,Seropédica,83841.0,56977.34,-22.7449583339999,-43.7044840639999
MG,Aimorés,25116.0,25402.54,-19.4926796999999,-41.067927321
MG,Alfredo Vasconcelos,7052.0,21364.59,-21.1456391649999,-43.7656303349999
SP,Redenção da Serra,3827.0,17461.44,-23.2808530709999,-45.5344161079999
MG,Além Paraíba,35438.0,27422.83,-21.8803399939999,-42.6937344709999
RJ,Cabo Frio,234077.0,52801.54,-22.882466600851387,-42.02053330265481
RJ,Barra do Piraí,101139.0,26833.48,-22.4608191699999,-43.8191125849999
RJ,Itaboraí,244416.0,23078.43,-22.753317923999898,-42.888764214999895
RJ,Volta Redonda,274925.0,71551.44,-22.5081904219999,-44.0941863919999
RJ,São João de Meriti,473385.0,18935.5,-22.7859884809999,-43.36579930599989
MG,Astolfo Dutra,14358.0,20339.56,-21.30955625,-42.8615650429999
MG,Bicas,14612.0,18998.7,-21.7198535859999,-43.06704160099989
MG,Campanário,3739.0,14298.98,-18.2386973439999,-41.7267768599999
MG,Alto Caparaó,5938.0,16354.23,-20.4431686189999,-41.869539665999895
RJ,Tanguá,34898.0,19902.27,-22.735307016999897,-42.731592814
MT,São Félix do Araguaia,11934.0,135991.34,-11.624857442999899,-50.6877974889999
SP,Bom Jesus dos Perdões,26506.0,55196.42,-23.1255766069999,-46.471400528999894
SP,Cruzeiro,82895.0,38390.41,-22.5737591779999,-44.9589149919999
SP,Cubatão,132521.0,165607.5,-23.9255247719999,-46.4133989059999
MT,Campos de Júlio,7245.0,455838.1,-13.72140568,-59.259369229
SP,Praia Grande,336454.0,25940.64,-24.0134611219999,-46.4501627179999
SP,Rio Claro,209548.0,63209.08,-22.4109999969999,-47.5610000279999
SP,Taubaté,320820.0,50495.56,-23.0305834639999,-45.57696268299989
PI,Olho D'Água do Piauí,2477.0,11599.13,-5.8479682179999495,-42.5749595889999
PI,Queimada Nova,9041.0,28037.27,-8.58296145047643,-41.41858106098826
SP,Amparo,73145.0,70437.56,-22.7009999949999,-46.7640000689999
PI,Nova Santa Rita,4392.0,10002.45,-8.07516904662682,-42.049216493038806
PI,Porto Alegre do Piauí,2728.0,14373.9,-6.97091061899994,-44.1982709339999
RS,Farroupilha,73758.0,59633.5,-29.221177477999998,-51.33191874599989
MG,Água Boa,13319.0,14421.07,-17.994778987254467,-42.390910021914635
MG,Bambuí,23964.0,32549.38,-20.0059999999999,-45.9769999999999
MG,Barão de Cocais,33232.0,73393.52,-19.9459999619999,-43.4870011119999
PA,Pacajá,49110.0,17666.57,-3.829007653226365,-50.62860179962222
PA,Trairão,19344.0,16931.49,-4.70118484899996,-55.9945973239999
MT,Peixoto de Azevedo,35695.0,25734.2,-10.2448420827713,-54.9922974013687
MT,Novo Mundo,9545.0,50945.76,-9.977113580999909,-55.16457736899989
MG,Alpercata,7448.0,12700.99,-18.990594620092274,-41.9902615289776
SC,Pescaria Brava,10225.0,11680.06,-28.3845729399999,-48.8659454869999
MT,Paranaíta,11291.0,70518.15,-9.67132706199994,-56.4767593719999
PR,Piên,13015.0,70453.65,-26.103190850999898,-49.4266327649999
RS,Capitão,2770.0,34432.45,-29.2689999999999,-51.9889999999999
RS,Caraá,8426.0,19660.45,-29.7899279459999,-50.4350716189999
RS,Carlos Barbosa,30630.0,115232.73,-29.2979999999999,-51.5039999999999
PI,União,44649.0,9413.79,-4.58658648799997,-42.861556185
MA,Bom Jardim,42010.0,9793.62,-3.5448540399999597,-45.6075413149999
MA,Cajari,19521.0,6562.71,-3.32108001199992,-45.012027098
MA,Igarapé do Meio,14470.0,25617.96,-3.63982451099997,-45.189181886
MA,Godofredo Viana,12104.0,219655.83,-1.41214383799996,-45.773530427000004
MA,Governador Nunes Freire,25502.0,10117.49,-2.12902408199994,-45.891365266
MA,Governador Newton Bello,10121.0,8318.48,-3.42686307099996,-45.671294648
MA,Cândido Mendes,20376.0,7205.58,-1.45190069099993,-45.7277426589999
MA,Boa Vista do Gurupi,8494.0,7953.1,-1.79957614799997,-46.307536032
MA,Buriti Bravo,23993.0,9949.14,-5.83764195299995,-43.835353393999995
MA,Cajapió,11255.0,6279.23,-2.87374101799998,-44.672052794
MA,Cedral,10711.0,7338.43,-1.99690493599996,-44.535261415
MA,Governador Eugênio Barros,14703.0,8056.04,-5.32193709399996,-44.2444203279999
MA,Graça Aranha,6261.0,8651.28,-5.40837283799993,-44.332787972999895
MA,Matinha,23591.0,8341.52,-3.0987011689999795,-45.0323826649999
MA,Itaipava do Grajaú,16158.0,6641.29,-5.14265356999994,-45.78912995
MA,Presidente Médici,7124.0,8519.79,-2.3760053509999497,-45.8237061889999
MA,Pinheiro,84160.0,12358.06,-2.52701305099993,-45.0886484059999
MA,Pio XII,21274.0,8995.4,-3.89148669199994,-45.17068685299989
MA,Bernardo do Mearim,6102.0,17228.18,-4.62939108899997,-44.761296433999995
MA,Conceição do Lago-Açu,16559.0,8891.36,-3.83790421099997,-44.8970025639999
MA,Carolina,24151.0,21777.14,-7.33334218099998,-47.465741769
MA,Fortaleza dos Nogueiras,12662.0,27382.7,-6.962321469999949,-46.178135962999896
MA,Governador Edison Lobão,18740.0,20012.29,-5.74947703199996,-47.362430550999896
MA,Lajeado Novo,7653.0,13260.77,-6.18988212099993,-47.037372585
MA,João Lisboa,23677.0,11431.55,-5.447211643999939,-47.406210558999895
MA,Paço do Lumiar,125265.0,9903.22,-2.51761071799996,-44.1091849009999
MA,Bequimão,21317.0,6480.26,-2.44950765799996,-44.790869734
MA,Buritirana,15503.0,7901.52,-5.592343442999949,-47.016355333999996
MA,Cachoeira Grande,9524.0,6404.03,-2.92868388399995,-44.052635661999894
MA,Igarapé Grande,11453.0,10281.52,-4.66396986599995,-44.854265077
MA,Guimarães,11966.0,7806.63,-2.1344228329999697,-44.6056409519999
MA,Itapecuru Mirim,69233.0,11164.32,-3.39449278899997,-44.352147553
MA,Marajá do Sena,7757.0,11708.59,-4.62189952110996,-45.45399709322673
MA,Amarante do Maranhão,42017.0,9250.86,-5.57072378399994,-46.744575227
MA,Bom Jesus das Selvas,35095.0,10706.25,-4.48356791699996,-46.853631443000005
MA,Brejo de Areia,8841.0,8040.01,-4.33054000299995,-45.584101878999896
MA,Buriticupu,73595.0,10165.53,-4.32140763299998,-46.454252723
MA,Feira Nova do Maranhão,8506.0,13874.85,-6.96242888399996,-46.682004869
MA,Cantanhede,22236.0,6900.34,-3.63444558699996,-44.380656181999896
MA,Grajaú,70692.0,16265.45,-5.82015480599995,-46.1558934179999
MA,Peritoró,23530.0,9794.8,-4.37300233599996,-44.3313479449999
MA,Aldeias Altas,26979.0,9246.08,-4.629894814999941,-43.4701642369999
MA,Bacabal,105094.0,14412.91,-4.22877494399995,-44.782467585999896
MA,Anajatuba,27170.0,7642.36,-3.26491792199994,-44.616723426
MA,Benedito Leite,5643.0,12965.11,-7.22015849499996,-44.554543511000006
MA,Buriti,28916.0,9613.88,-3.94429971099993,-42.913988251000006
MA,Brejo,36900.0,8907.79,-3.67986105099993,-42.754115816
MA,Coelho Neto,49804.0,9291.68,-4.25507301299996,-43.0128280129999
MA,Colinas,41443.0,13349.73,-6.03214606199998,-44.247387846
MA,Duque Bacelar,11451.0,7591.12,-4.150819989999949,-42.944805726
MA,Chapadinha,80705.0,11083.69,-3.7368227269999497,-43.356315388
MA,Açailândia,113783.0,33649.84,-4.950064745999949,-47.4905996219999
RS,Monte Alegre dos Campos,3237.0,33898.25,-28.68306529138967,-50.783118497194785
RS,Morrinhos do Sul,2891.0,28178.72,-29.3650192879999,-49.93495239599989
RS,Morro Redondo,6609.0,20039.8,-31.588019701,-52.632992206999894
MA,Bom Lugar,16578.0,7116.84,-4.37334016599993,-45.03992053
RS,Triunfo,30159.0,430464.73,-29.942999999999902,-51.7179999999999
PE,São Vicente Férrer,18150.0,11544.25,-7.59206658299996,-35.486612953000005
RN,Lagoa Nova,15880.0,16941.79,-6.09379809199993,-36.4705688129999
RN,Lajes Pintadas,4768.0,10821.07,-6.14992529599994,-36.116464119999904
RN,São Vicente,6476.0,11877.99,-6.219343773999979,-36.68299643699989
PR,Balsa Nova,13238.0,69966.95,-25.582487253000004,-49.630785739999894
PR,Campina Grande do Sul,44072.0,49376.42,-25.308893198801464,-49.05511480930491
PR,Campo do Tenente,8118.0,32185.94,-25.981376149999896,-49.684408254999894
PR,Colombo,249277.0,22842.86,-25.291136203,-49.229225831
PR,Guaraqueçaba,7554.0,15643.19,-25.2978242479999,-48.3208191279999
PR,Guaratuba,37974.0,25866.35,-25.884781079884853,-48.583088229617914
PR,Ivaí,14049.0,35427.84,-25.0068360089999,-50.8544138579999
PR,Lapa,48651.0,58401.14,-25.7647023489999,-49.7209686019999
PR,Nova Esperança,28062.0,33612.53,-23.1860901379999,-52.199712657999996
PE,Santa Cruz do Capibaribe,111812.0,17222.96,-7.94844293399996,-36.2063900539999
PB,Coxixola,1948.0,12328.94,-7.626323426999929,-36.6051064929999
RN,Campo Redondo,11363.0,9413.69,-6.242657591999939,-36.1832391299999
RN,Santa Cruz,40295.0,15362.76,-6.22298921599997,-36.022169382
RN,Tenente Laurentino Cruz,6085.0,17631.19,-6.14805300999996,-36.7174334119999
MG,Fervedouro,11100.0,14134.11,-20.7310296349999,-42.281273551999895
MG,Formoso,9810.0,32101.59,-14.953154543000002,-46.232393423000005
RS,Pinheiro Machado,12122.0,32810.02,-31.5780274669999,-53.3811028039999
SC,Rio do Campo,5864.0,36309.6,-26.945848199999897,-50.1409637079999
MT,Sapezal,27485.0,253910.54,-13.5453735319999,-58.819394530999894
MT,Aripuanã,23067.0,62691.39,-10.1725236954826,-59.44861637916189
MT,Comodoro,21249.0,59213.23,-13.660497178999899,-59.786731274000005
MT,Figueirópolis D'Oeste,3411.0,24516.56,-15.4490121759999,-58.73826043
MT,Jauru,8377.0,41639.89,-15.338402645,-58.872893877
MT,Juína,41190.0,32361.19,-11.425015948,-58.770603099000006
SC,Ibirama,19238.0,31141.54,-27.05901514136966,-49.525297721240236
SC,Irani,10575.0,26727.48,-27.0223588779999,-51.895398741
SC,Lontras,12497.0,37301.37,-27.164611323999896,-49.5383598199999
SC,Mirim Doce,2257.0,39625.65,-27.2005553939999,-50.069422984999896
RS,Itaqui,37363.0,58531.72,-29.1250000249999,-56.5529995889999
RS,Jaguari,10684.0,35381.69,-29.4970021219999,-54.6899981779999
RS,Relvado,2068.0,39983.85,-29.112099765999897,-52.0613760999999
RS,Sant'Ana do Livramento,75647.0,37330.14,-30.8910000119999,-55.5329998039999
RS,São Vendelino,2288.0,41847.5,-29.383662425999898,-51.36871510299989
PE,Itapissuma,27144.0,87814.64,-7.77624114799994,-34.894444097
PB,Alagoa Grande,28384.0,10573.42,-7.04111511299993,-35.627141914999996
PB,Patos,108766.0,18329.13,-7.031293072999969,-37.2810591219999
PB,Pilões,6518.0,14641.92,-6.86665401599993,-35.611823129
MG,Rubim,10269.0,10879.32,-16.379491182000002,-40.5406269969999
SP,Piquete,13495.0,14661.29,-22.6109733469999,-45.181516998999896
SC,Passos Maia,4072.0,43019.07,-26.7805068119999,-52.06257830199989
RS,Agudo,16344.0,40863.53,-29.6449999999999,-53.24
RS,Tapejara,24973.0,65852.84,-28.0671694089999,-52.010522009999896
MG,Jequeri,12246.0,15840.35,-20.4548397109999,-42.6666133439999
PR,Pato Branco,84779.0,53648.87,-26.235604019999897,-52.678110366999896
RR,Alto Alegre,15249.0,25280.78,2.988238345493846,-61.31049726391023
MS,Juti,6861.0,67667.37,-22.8609999969999,-54.6029999659999
SC,Ermo,2059.0,85741.16,-28.984740670999898,-49.6437868469999
RS,Nonoai,11574.0,45403.84,-27.3653850899999,-52.773130223
GO,Aurilândia,3000.0,27190.95,-16.679587732,-50.4689345159999
GO,Pontalina,17899.0,40069.82,-17.5165552129999,-49.449132936
GO,Cezarina,8794.0,43779.36,-16.969907882,-49.769156242
GO,Varjão,3848.0,27309.69,-17.0440189,-49.632468982000006
PB,Sumé,17096.0,11749.92,-7.67251192099997,-36.882875645000006
RS,Chuí,6832.0,54200.93,-33.691000001999996,-53.4569999699999
MG,Juruaia,10795.0,25392.25,-21.2529999999999,-46.5769999999999
MG,Palma,6606.0,15693.82,-21.375046168999898,-42.3143685029999
MT,Juruena,16811.0,17721.06,-10.332417870666385,-58.49498204052001
BA,Iuiu,11038.0,12087.01,-14.410695738999898,-43.55117633
SC,Riqueza,4525.0,32629.64,-27.0689328999999,-53.3241123529999
PB,Jacaraú,14467.0,11414.24,-6.613697789999949,-35.2897785759999
RN,Várzea,5529.0,10229.06,-6.346110647999979,-35.374652221999995
MT,Santa Cruz do Xingu,2700.0,118731.1,-10.1550932119999,-52.391935025
SP,Salto,120779.0,77029.01,-23.2009999999999,-47.28699999999989
SP,Cotia,257882.0,62486.58,-23.6039999999999,-46.9189999999999
BA,Ipirá,59281.0,11216.33,-12.1546866369999,-39.738995874999894
RS,Pontão,3898.0,103467.34,-28.0589999999999,-52.676999996999896
PB,Mogeiro,13238.0,12416.64,-7.30682657199998,-35.472985713
SP,Canas,5268.0,24688.77,-22.703611101999897,-45.0552781289999
MA,Timon,171317.0,13547.65,-5.10757836699997,-42.837849639999895
MG,Lamim,3366.0,15487.44,-20.7899980049999,-43.471965272999896
MG,Machado,42682.0,32188.05,-21.675,-45.919999999999895
PR,Uraí,11233.0,32748.89,-23.1979999989999,-50.796000000999896
GO,Ceres,22407.0,32787.08,-15.31021263,-49.608774293
SP,Itobi,7862.0,25230.99,-21.7369999999999,-46.974999999999895
SC,Agronômica,5570.0,41807.92,-27.2669545209999,-49.7115860299999
SP,Nantes,3215.0,44261.55,-22.6194805089999,-51.237592940999896
SP,Braúna,5795.0,20826.02,-21.4989999999999,-50.315999999999896
BA,Itamari,7971.0,12969.76,-13.7794005809999,-39.684755671999895
RS,Jóia,8571.0,113803.19,-28.6469999999999,-54.12199999999989
MG,Lambari,20995.0,19293.34,-21.975999999,-45.349999999999895
GO,Mambaí,9277.0,11591.02,-14.496598822000001,-46.109060767
BA,Itiúba,36140.0,9731.99,-10.6914268739999,-39.854349508
SP,Nipoã,5381.0,17820.45,-20.913,-49.778000001
RS,Jari,3472.0,135082.01,-29.2898820548526,-54.22161885482038
PB,Conde,25341.0,50786.89,-7.259566238999979,-34.912498353096495
RN,Jucurutu,18335.0,17226.13,-6.03549945099996,-37.020318843000005
SP,Lorena,89532.0,43299.19,-22.7309999919999,-45.1250003279999
MT,Itaúba,3609.0,116106.91,-11.0074892059999,-55.243594077999894
MT,Sinop,148960.0,64607.12,-11.8596816419999,-55.507459793
SP,Lins,78978.0,85642.71,-21.6789999999999,-49.74300000099989
SP,Tupã,65615.0,33732.18,-21.9349999999999,-50.514
MG,Curvelo,81085.0,27509.61,-18.7559999989999,-44.431000000999894
MG,Iapu,11085.0,15915.1,-19.4356868839999,-42.2132569519999
MG,Raposos,16501.0,11738.63,-19.9669999999999,-43.803999999999895
SP,Apiaí,24081.0,37278.88,-24.509,-48.8429999999999
PE,Itaíba,26268.0,10789.31,-8.94697899399995,-37.421463313999894
PE,Jataúba,17305.0,8948.98,-7.98628624299994,-36.496106149999896
PB,Capim,6715.0,11264.11,-6.92019017799993,-35.166946728000006
PB,Picuí,18737.0,11378.13,-6.50886580999997,-36.350002167
TO,Sampaio,4876.0,29914.52,-5.35161918199998,-47.875817954999896
MG,Olaria,1694.0,18836.72,-21.8597722849999,-43.9368894689999
PB,Araruna,20610.0,9912.59,-6.534594812999959,-35.7409461839999
MG,Pequi,4457.0,19184.76,-19.6329999999999,-44.6589999999999
BA,Wenceslau Guimarães,20862.0,15896.95,-13.686894552,-39.478551126
BA,Riacho de Santana,35757.0,8884.2,-13.6130274299999,-42.936416236999904
BA,Urandi,16672.0,11987.35,-14.769052414999999,-42.657671297
BA,Santa Rita de Cássia,28613.0,9998.2,-10.9961469589999,-44.5214176329999
BA,Tabocas do Brejo Velho,12515.0,21439.63,-12.702668113999898,-44.008689188999895
BA,Vitória da Conquista,343643.0,23907.93,-14.855074069,-40.84524544
BA,Teodoro Sampaio,7296.0,24308.53,-12.302573434000001,-38.6401954
BA,Serra Preta,14531.0,9506.26,-12.159754279,-39.3320236179999
BA,Tanhaçu,20383.0,12431.64,-14.021195652,-41.245968416000004
BA,Wanderley,12125.0,13835.65,-12.119192708,-43.891251009
BA,Tremedal,15996.0,8360.65,-14.976415543564624,-41.41040990217401
BA,São Miguel das Matas,11733.0,15046.12,-13.042457786999899,-39.4603261569999
BA,Santo Antônio de Jesus,103204.0,23746.79,-12.9714442599999,-39.262877277
BA,Sapeaçu,17421.0,12247.06,-12.729782271000001,-39.18704672
BA,São Félix do Coribe,15543.0,15338.81,-13.4054764099999,-44.19419759899989
BA,Santa Maria da Vitória,39707.0,15124.72,-13.390605955999899,-44.1970606529999
BA,Souto Soares,17118.0,7944.5,-12.0904586349999,-41.6509063939999
BA,Sítio do Mato,13104.0,9156.98,-13.085368226999899,-43.468217341
BA,Wagner,9342.0,9591.73,-12.279119991999899,-41.166844193
BA,Uauá,23991.0,9798.34,-9.842135198999928,-39.479581917
BA,Serra Dourada,17261.0,11590.91,-12.761806798,-43.9504911719999
BA,Senhor do Bonfim,79813.0,12512.82,-10.456142004000002,-40.187120632
BA,Serra do Ramalho,31362.0,13121.69,-13.542096248000002,-43.57731174799989
BA,Rio do Pires,11672.0,8603.79,-13.1259642809999,-42.2920650679999
BA,São Domingos,9085.0,9739.29,-11.463434224,-39.528141954000006
BA,Santo Estêvão,53666.0,17032.58,-12.4364682249999,-39.2512101
BA,Santana,26792.0,12840.88,-12.981712592000001,-44.050556104
BA,Varzedo,8734.0,15487.45,-12.97551761408162,-39.39517626348794
BA,Tanque Novo,17518.0,10442.62,-13.547596978999898,-42.490839437000005
PI,Paulistana,20583.0,13006.31,-8.138211029815258,-41.14445347731139
PI,Manoel Emídio,5352.0,10240.38,-8.004325731999929,-43.872299745999996
PI,Miguel Leão,1239.0,19050.85,-5.682699658999979,-42.736458275000004
PI,Barro Duro,7022.0,12792.63,-5.8169897859999695,-42.508762052
PI,Anísio de Abreu,9994.0,9900.44,-9.18466063499994,-43.052586221000006
PI,Itaueira,11037.0,11946.42,-7.600113388999939,-43.027668056
PI,Monsenhor Gil,10563.0,12067.47,-5.56649749999997,-42.605161183
PI,Nazaré do Piauí,7307.0,9175.58,-6.97470947699998,-42.673395117
PI,Nossa Senhora dos Remédios,8751.0,8975.73,-3.9817525739999295,-42.620792105999996
PI,São Francisco de Assis do Piauí,5801.0,9575.04,-8.23761045099997,-41.687103124
PI,São Pedro do Piauí,14356.0,9391.24,-5.9182869859999405,-42.722294096
PI,Sebastião Leal,4311.0,59247.26,-7.56821975299994,-44.0636687539999
PI,Tanque do Piauí,2781.0,11931.15,-6.59773872099993,-42.284062993
PI,Pajeú do Piauí,3416.0,15392.7,-7.85564968299997,-42.8219013
PI,Santo Antônio dos Milagres,2172.0,8310.8,-6.048823141999949,-42.711361381
PI,Várzea Branca,4930.0,9034.44,-9.240161192999949,-42.9646490549999
PI,Paes Landim,4124.0,10729.66,-7.77666815099997,-42.2548288679999
PI,Oeiras,37138.0,15735.17,-7.014358699999949,-42.126370255999994
PI,Palmeirais,14633.0,9478.06,-5.970252637999979,-43.058049686999894
PI,São João do Piauí,20720.0,20605.74,-8.359813458999948,-42.248908409
PI,Várzea Grande,4382.0,9355.32,-6.547449116999929,-42.249921393
PI,José de Freitas,39457.0,9902.38,-4.75346292999996,-42.573207193
PI,São Raimundo Nonato,35035.0,16160.36,-9.011242975999949,-42.701785354
PI,Socorro do Piauí,4557.0,9011.75,-7.86459871999995,-42.5027677649999
PI,Acauã,7119.0,10332.99,-8.21762009299994,-41.082140277
PI,Colônia do Piauí,7665.0,8886.02,-7.23002339099997,-42.1782286489999
PI,Regeneração,17979.0,14712.38,-6.23468015099996,-42.687913024
PI,São Miguel da Baixa Grande,2456.0,11104.36,-5.864334652999959,-42.185607046
PI,Uruçuí,21746.0,129458.67,-7.238796085999979,-44.55578417299989
PI,Lagoa do Piauí,4086.0,18505.9,-5.41352570099997,-42.6470295139999
PI,Tamboril do Piauí,2939.0,10339.42,-8.39954173599995,-42.912361561000004
PI,Brejo do Piauí,3824.0,11500.45,-8.20781158899996,-42.835678257
PI,Boa Hora,6848.0,9127.74,-4.40804292299993,-42.122190911
PI,Betânia do Piauí,6214.0,10067.79,-8.145796287999929,-40.795349049
PI,Boqueirão do Piauí,6443.0,8028.09,-4.48855732699997,-42.104794985999895
MG,São Roque de Minas,7100.0,45519.05,-20.2449999999999,-46.36599999999989
MG,Wenceslau Braz,2543.0,13011.59,-22.5344444309999,-45.3627780449999
MG,Aiuruoca,5949.0,21608.49,-21.978807102999998,-44.60592121799989
MG,Alagoa,2657.0,17958.99,-22.171222144,-44.6425958369999
MG,Alterosa,14566.0,20357.31,-21.2489999999999,-46.142999999999894
RS,Alpestre,5885.0,33369.8,-27.250756408999898,-53.0353220389999
RS,Alto Alegre,1590.0,66755.15,-28.7729999999999,-52.9899999929999
RS,Alto Feliz,3043.0,53088.35,-29.380213342999898,-51.3135844849999
MG,Capim Branco,9896.0,12467.57,-19.545546474007335,-44.13334113919613
MG,Carmo do Rio Claro,21310.0,32595.84,-20.971999999999902,-46.11899999999989
MG,Conceição do Pará,5558.0,88902.87,-19.7529999999999,-44.8969999999999
RS,Anta Gorda,5941.0,54248.7,-28.969332204999898,-52.00905818
RS,Antônio Prado,13041.0,61154.04,-28.8537172399999,-51.2812457699999
RS,Arroio do Padre,2966.0,25887.92,-31.4426604929999,-52.4222380219999
RS,Arroio do Sal,10483.0,27241.9,-29.550917668,-49.889092389999895
RS,Arroio do Tigre,13452.0,31911.3,-29.333618873999896,-53.086424197999904
PE,Ferreiros,12216.0,10846.66,-7.45008378499995,-35.243451959000005
MT,Colniza,41117.0,20651.18,-9.45491133699994,-59.224836010999894
MT,Conquista D'Oeste,4163.0,34399.39,-14.5412761389999,-59.541330645
MT,Curvelândia,5267.0,23513.3,-15.609647955,-57.917213309000005
MT,Ipiranga do Norte,8182.0,235258.71,-12.238954952,-56.150855915
MT,Itanhangá,7030.0,102626.15,-12.236332053999899,-56.6426022269999
MT,Nova Santa Helena,3755.0,88750.48,-10.8529090989999,-55.1781143989999
MT,Santo Antônio do Leste,5459.0,186843.37,-14.8013091889999,-53.611293081999996
MT,Vale de São Domingos,3124.0,24697.43,-15.295861501730577,-59.06487550314501
RS,Almirante Tamandaré do Sul,1935.0,142847.94,-28.11438019568199,-52.91379229354912
RS,Canudos do Vale,1693.0,40157.66,-29.323130103999897,-52.237718695000005
PI,Jardim do Mulato,4522.0,8764.19,-6.101218579999969,-42.6289935789999
RS,Coqueiro Baixo,1490.0,35008.88,-29.1783439999999,-52.092704999999896
RS,Coronel Pilar,1602.0,30623.65,-29.271772289,-51.6832797799999
RS,Forquetinha,2389.0,24671.04,-29.381861999999998,-52.0912659999999
RS,Itati,2377.0,36490.36,-29.488928809999898,-50.1050470789999
RS,Jacuizinho,2718.0,82423.05,-29.033879,-53.059464999999896
RS,Lagoa Bonita do Sul,2939.0,23448.31,-29.4893109999999,-53.013957999999896
RS,Pedras Altas,1928.0,200305.43,-31.732877669999898,-53.58385772399989
RS,Westfália,3046.0,86946.36,-29.4199911599999,-51.7656705339999
PB,Bayeux,97519.0,14016.16,-7.12823238399994,-34.925634864
RN,Touros,33716.0,24167.89,-5.19932391199995,-35.459751981000004
PB,Mãe d'Água,3988.0,9680.02,-7.2579123049999295,-37.427694935000005
PE,Casinhas,14395.0,7052.53,-7.74512511999995,-35.7237172339999
PE,Condado,26755.0,9378.26,-7.58618263199998,-35.103377891
PE,Ilha de Itamaracá,27076.0,11051.57,-7.75183564999998,-34.8275638269999
PE,Itambé,36495.0,14321.34,-7.40947242599998,-35.1113255619999
PE,Itapetim,13492.0,10367.12,-7.3780594529999295,-37.1895022109999
PB,Alhandra,19865.0,171143.98,-7.432131850945857,-34.91025173347536
PB,Gurinhém,14125.0,10688.13,-7.121968707999939,-35.425176457
PB,Ingá,18184.0,10721.55,-7.29116201199997,-35.610797947
PB,Livramento,7274.0,9629.25,-7.373776783999969,-36.944960414
PB,Ouro Velho,3052.0,12542.35,-7.61778206499997,-37.153107354999996
PB,Pedras de Fogo,28607.0,19452.45,-7.40253807199997,-35.112480010999896
RS,Barra do Ribeiro,13618.0,37126.68,-30.296607913833597,-51.305144446853596
RN,Jundiá,3945.0,10683.94,-6.27067637099998,-35.3272935589999
PE,Orocó,15309.0,12178.95,-8.617596743999968,-39.599799644
PE,Santa Maria da Boa Vista,42266.0,13344.05,-8.79765499999996,-39.824056001
PE,Santa Maria do Cambucá,14308.0,8545.0,-7.83298009499993,-35.881372771
PB,Barra de Santana,8338.0,10889.99,-7.52239892299997,-35.9970057269999
PB,Boqueirão,17934.0,14310.05,-7.482635445999959,-36.132311159000004
PB,Caturité,4898.0,12589.86,-7.42001202999995,-36.0209303849999
PB,Santa Cecília,6526.0,10059.66,-7.74302840599995,-35.879406126999996
BA,Ouriçangas,8575.0,9404.52,-12.0116781789999,-38.6295090409999
BA,Várzea Nova,12556.0,18469.87,-11.25815984,-40.94429293
PI,Lagoa do Barro do Piauí,4658.0,114788.12,-8.481374900105179,-41.52977347131587
PE,Afrânio,19981.0,10500.7,-8.51463516499996,-41.006960845
RN,Parazinho,5307.0,114234.25,-5.22656860799998,-35.8393746679999
RN,Pedra Grande,3163.0,92723.55,-5.14965992899994,-35.877165905
MG,Divisópolis,11396.0,8178.51,-15.723677549999898,-41.001690544
PE,Cachoeirinha,20618.0,12337.22,-8.488360900999961,-36.23701241
PE,Dormentes,19246.0,12783.05,-8.44430335599998,-40.766283398999995
PE,Ibirajuba,7773.0,11003.14,-8.57953285299993,-36.1769661399999
MG,Felisburgo,7548.0,10030.05,-16.638137615999902,-40.7608443739999
MG,Jequitinhonha,25555.0,10754.52,-16.437177667999897,-41.0054274619999
MG,Joaíma,15476.0,10509.42,-16.65561274,-41.024870182
MG,Jordânia,10872.0,9857.64,-15.898730815,-40.179049
MG,Mata Verde,8700.0,10526.08,-15.688107555133627,-40.73959390838419
MG,Medina,20701.0,12224.08,-16.2275623039999,-41.4771577999999
MG,Ninheira,10355.0,12205.08,-15.320050033000001,-41.755680029
MG,Palmópolis,5196.0,12292.83,-16.736354661999897,-40.42220631
MG,Rio do Prado,5117.0,10293.72,-16.6095698089999,-40.573331905
TO,Praia Norte,8563.0,10876.87,-5.3947121989999705,-47.810540798000005
TO,São Sebastião do Tocantins,4898.0,12618.29,-5.25768866099997,-48.2023437679999
TO,Bandeirantes do Tocantins,3631.0,49202.29,-7.76042446199995,-48.5775066859999
TO,Colinas do Tocantins,36271.0,23769.37,-8.054676817999958,-48.478601645
TO,Muricilândia,3623.0,19173.33,-7.14506462799994,-48.607675295
TO,Nova Olinda,12014.0,26661.49,-7.63467517599997,-48.4206127309999
TO,Santa Fé do Araguaia,7678.0,22913.12,-7.154320419999979,-48.692145333
PI,Bom Jesus,25584.0,55119.81,-9.06872091599996,-44.358365459
PI,Bonfim do Piauí,5700.0,9288.55,-9.16806270799998,-42.877477174999996
PI,Barreiras do Piauí,3356.0,48620.97,-9.92393337699997,-45.473495532
PI,Júlio Borges,5653.0,14292.17,-10.3274270479999,-44.239107771
PI,Morro Cabeça no Tempo,4527.0,8648.56,-9.72767290199994,-43.9082134499999
PI,Monte Alegre do Piauí,10618.0,28073.98,-9.75342353399998,-45.304110802000004
PI,São Gonçalo do Gurguéia,3071.0,17781.61,-10.030704574,-45.302238234
PI,Redenção do Gurguéia,8814.0,11110.79,-9.485078994999979,-44.579845685
PI,Parnaguá,10846.0,10991.62,-10.2239727159999,-44.637625547000006
PI,Riacho Frio,4306.0,10747.61,-10.129318166000001,-44.954271634
PI,Sebastião Barros,3434.0,13602.93,-10.8145565479999,-44.832743152999996
MG,Rio Pardo de Minas,31171.0,11082.95,-15.617157812000002,-42.543380914
MG,Santo Antônio do Retiro,7316.0,9670.55,-15.342149986889428,-42.62275363734283
MA,Alto Parnaíba,11233.0,51543.79,-9.110264958999949,-45.933638817
MA,Tasso Fragoso,8642.0,272095.76,-8.47370854599995,-45.747932911
MG,São João do Paraíso,23797.0,11979.66,-15.3173206,-42.0195060259999
MG,Jacinto,12320.0,10680.55,-16.14821777055338,-40.296873739941724
MG,Santa Maria do Salto,5203.0,9608.97,-16.248971265,-40.147766814
MG,Santo Antônio do Jacinto,11570.0,9900.93,-16.532576471000002,-40.175881569000005
MG,Goiabeira,3402.0,14670.26,-18.982007358999898,-41.2212031509999
MG,Ipanema,20133.0,17115.04,-19.799834631,-41.7148634799999
MG,Itabirinha,11637.0,11723.25,-18.5654459749999,-41.2331379849999
MG,Itanhomi,12259.0,12341.6,-19.169284641999898,-41.861451372999895
MG,Mutum,26945.0,18874.87,-19.8176981639999,-41.44067334099989
MG,Pocrane,8288.0,14686.18,-19.6202914385736,-41.63532372261839
TO,Recursolândia,4389.0,20842.97,-8.736689349999951,-47.242651028000004
RJ,Carapebus,16859.0,43108.68,-22.1840482879999,-41.660349516999894
MG,Araçuaí,36715.0,14163.67,-16.8508269879999,-42.064015029000004
MG,Caparaó,5464.0,17866.83,-20.523241808074665,-41.905760213600104
RJ,Bom Jesus do Itabapoana,37306.0,24343.72,-21.1374783009999,-41.6784562599999
RJ,Campos dos Goytacazes,514643.0,72243.98,-21.762923738999902,-41.3120860859999
RJ,Cardoso Moreira,12818.0,30853.68,-21.492833565,-41.6142664909999
RJ,Itaperuna,104354.0,32533.22,-21.2029903579999,-41.8937903519999
MG,Espera Feliz,25287.0,16254.21,-20.6466065199999,-41.912317117999905
MG,Francisco Badaró,10311.0,7546.65,-16.9921367649999,-42.3542742389999
MG,José Gonçalves de Minas,4474.0,11565.81,-16.908622227,-42.604637343
MG,Conceição do Rio Verde,13729.0,25025.75,-21.8809999999999,-45.0849999989999
MG,Coqueiral,9099.0,25735.37,-21.1889999999999,-45.440999999999896
PI,Murici dos Portelas,9258.0,8091.22,-3.3222334029999296,-42.091035051999896
MG,Três Pontas,57127.0,32896.24,-21.3669999999999,-45.5129999999999
MA,Zé Doca,52190.0,10867.33,-3.27885501799994,-45.653986679
MG,Liberdade,4994.0,21553.54,-22.0243587047764,-44.3151409364083
MG,Nepomuceno,26882.0,23008.04,-21.2359999999999,-45.2359999999999
MG,Santana da Vargem,7047.0,34469.93,-21.2489999999999,-45.5069999999999
MG,Santa Rita de Jacutinga,4843.0,15448.41,-22.1486561429999,-44.0934730449999
MG,São Bento Abade,5411.0,16505.34,-21.5819999999999,-45.075999999999894
MG,Três Corações,80561.0,36734.42,-21.6969999999999,-45.25299999999989
MG,Passa Quatro,16439.0,28737.93,-22.3906417679999,-44.965566106999894
MG,Perdões,21577.0,29060.6,-21.091,-45.0909999989999
SC,Passo de Torres,9269.0,25600.25,-29.3159984369999,-49.724000460999896
SC,Praia Grande,7305.0,30559.62,-29.196961112999897,-49.949912872999896
SC,Santa Rosa do Sul,8397.0,23706.37,-29.1364709139999,-49.714899712999895
SC,Timbé do Sul,5338.0,29011.31,-28.831964148999898,-49.84560118299989
SC,Turvo,13080.0,56408.72,-28.9262105679999,-49.68066981599989
PA,Rurópolis,52473.0,9468.44,-4.101576415040758,-54.91023392018527
PA,Alenquer,57390.0,12988.38,-1.9513975049999999,-54.7408623501896
PA,Bannach,3239.0,39829.41,-7.352688698690002,-50.41069971094784
PA,Belterra,17944.0,13218.69,-2.639165329175315,-54.934785223934846
PA,Cumaru do Norte,14044.0,28975.18,-7.81056056999995,-50.7745282309999
MT,Castanheira,8782.0,24494.82,-11.140376639000001,-58.608199065
RS,Capão da Canoa,55009.0,35739.83,-29.7609380229999,-50.0300261269999
RS,Dom Pedro de Alcântara,2520.0,26005.05,-29.369499455999897,-49.84975518499989
RS,Imbé,23721.0,26424.42,-29.974999023,-50.1280664189999
RS,Mampituba,2965.0,23680.66,-29.2109320929999,-49.935072901999895
RS,Maquiné,6747.0,28232.21,-29.675033622999898,-50.206919195000005
RS,Osório,46815.0,38855.58,-29.8869138829999,-50.2700293259999
RS,Terra de Areia,11323.0,25729.73,-29.584910459000003,-50.0710003249999
RS,Torres,39381.0,35095.54,-29.3359306143356,-49.7304044945033
RS,Tramandaí,53507.0,23072.56,-29.984974071999897,-50.1339357969999
RS,Três Cachoeiras,11174.0,27614.79,-29.4559893979999,-49.9239601319999
RS,Três Forquilhas,2643.0,24297.46,-29.5369935719999,-50.0644545879999
RS,Xangri-lá,17126.0,42809.21,-29.801030512,-50.0438546569999
MT,Luciara,2036.0,20224.35,-11.2218906369999,-50.667595213000006
MT,Porto Alegre do Norte,12849.0,44260.34,-10.8807245109999,-51.634813073000004
MT,Santa Terezinha,8547.0,35169.16,-10.4690119709999,-50.510814898
MT,Vila Rica,26946.0,32627.85,-10.015902137,-51.12132453899989
MT,Cotriguaçu,20717.0,15773.04,-9.90350395099995,-58.572661010999894
MT,Nova Bandeirantes,16052.0,21391.37,-9.84775357396533,-57.81742357855283
MT,Novo Horizonte do Norte,4069.0,24944.48,-11.390183546999898,-57.317796009999896
SP,Itaporanga,15197.0,20103.59,-23.7079999999999,-49.49
SP,Itararé,50778.0,23286.15,-24.115000000000002,-49.341
SP,Riversul,5364.0,17299.84,-23.8279999999999,-49.428999999999895
SP,Timburi,2647.0,25047.71,-23.2049999999999,-49.60699999999989
MT,Tabaporã,9357.0,141052.69,-11.308864491000001,-56.823334873
SC,Dona Emma,4224.0,39232.06,-26.9839779999999,-49.7288435909999
SC,José Boiteux,5019.0,25993.68,-26.961645304999898,-49.6265917289999
SC,Witmarsum,4032.0,43449.39,-26.928519057734984,-49.79517624216335
RO,Ouro Preto do Oeste,35445.0,27814.02,-10.7235739008135,-62.261055190436196
RO,Parecis,6319.0,24597.92,-12.1811255555555,-61.603193333333294
RO,Rio Crespo,3843.0,47991.2,-9.704914444444459,-62.898575555555496
RO,Santa Luzia D'Oeste,5942.0,35940.09,-11.907932777777798,-61.77747888888889
RO,São Felipe D'Oeste,4962.0,26335.31,-11.9112183333333,-61.5125211111111
RO,Teixeirópolis,4160.0,29158.81,-10.9336622222222,-62.256297222222194
RO,Vale do Anari,11545.0,19106.79,-9.85765388888888,-62.174610555555496
RO,Vale do Paraíso,6490.0,28605.27,-10.426771666666598,-62.12852611111109
RO,Cujubim,27131.0,17967.64,-9.366146111111108,-62.58045222222219
RO,Machadinho D'Oeste,41724.0,21338.33,-9.42556248,-61.9995925724466
RO,Jaru,51469.0,34294.21,-10.4359487678844,-62.476230708131595
PR,Santana do Itararé,4916.0,34909.63,-23.7549999999999,-49.6289999999999
AM,Fonte Boa,16409.0,13576.3,-2.5159194444444197,-66.0903555555555
AM,Jutaí,13462.0,19787.31,-2.74901722222222,-66.76963111111111
AM,Juruá,15495.0,8910.85,-3.47828222222222,-66.0697961111111
AM,Tapauá,16876.0,14218.05,-5.62983444444444,-63.182213333333294
MT,Poxoréu,15936.0,67630.15,-15.828164699999899,-54.395342233
MT,Guarantã do Norte,36439.0,30166.45,-9.96219948599992,-54.905664130999895
MT,Pedra Preta,17547.0,89805.8,-16.621953104999896,-54.476433158999995
MT,São José do Povo,4102.0,14374.39,-16.465694949,-54.25428909
SP,Araçatuba,199210.0,45268.6,-21.2089999999999,-50.43299999999989
SP,Nova Castilho,1290.0,47027.11,-20.762999999999902,-50.3429999999999
SP,Populina,4136.0,28351.02,-19.9429079099999,-50.537671753999895
RO,Nova Brasilândia D'Oeste,20504.0,26762.31,-11.7262866666667,-62.3176944444444
RO,Nova Mamoré,32184.0,23076.28,-10.4112855555555,-65.33180999999999
RO,Nova União,6822.0,23060.8,-10.91343,-62.556302777777795
RO,Novo Horizonte do Oeste,8125.0,28492.53,-11.7090533333333,-61.9993516666667
RO,Pimenteiras do Oeste,2127.0,115753.94,-13.4818966666667,-61.047775555555496
RO,São Miguel do Guaporé,23147.0,39112.42,-11.69242,-62.716004999999996
RO,Seringueiras,11846.0,28109.66,-11.769882222222199,-63.03376888888889
RO,Urupá,11081.0,24682.0,-11.1281938888889,-62.3709111111111
RO,Castanheiras,2923.0,34083.75,-11.427151111111101,-61.9483611111111
RO,Alvorada D'Oeste,13807.0,25539.82,-11.3481683333333,-62.28573888888889
AC,Acrelândia,15721.0,25362.56,-10.0756888888889,-67.0520227777777
MT,Nova Lacerda,6861.0,64948.2,-14.4770962589999,-59.588561993999996
MT,Pontes e Lacerda,46105.0,52840.74,-15.230860403000001,-59.3369063869999
MT,Vila Bela da Santíssima Trindade,16412.0,38942.45,-15.0066763839999,-59.947600617999996
MS,Paranaíba,42401.0,38865.51,-19.6769999999999,-51.190999999999896
MT,Jaciara,27696.0,43250.68,-15.954778,-54.973319999999894
MT,Nossa Senhora do Livramento,13093.0,29622.31,-15.773080110999999,-56.344710951
MT,Nova Maringá,9056.0,133034.17,-13.030667482000002,-57.092232190999894
SP,Analândia,5115.0,40726.1,-22.125999997,-47.6630000239999
SP,Iepê,8228.0,52789.96,-22.6610206759999,-51.076053550999895
SP,Indiana,4873.0,17846.96,-22.1740229549999,-51.251996678
SP,Lupércio,4608.0,21340.47,-22.4149999999999,-49.8170000009999
SP,Martinópolis,26791.0,28179.26,-22.1460034129999,-51.1710155029999
PR,Itambaracá,6516.0,34321.07,-23.0179999999999,-50.40599999999989
PR,Primeiro de Maio,11138.0,33335.27,-22.850974490999896,-51.0279831099999
PR,Rancho Alegre,3760.0,49378.6,-23.0699999999999,-50.913000000000004
PR,Santo Inácio,5422.0,98142.7,-22.698021008999902,-51.794031884999896
PR,São João do Triunfo,15359.0,37735.83,-25.684382664999898,-50.2990391369999
PR,Sertaneja,5149.0,80884.23,-23.038606034999898,-50.817357672999904
SP,Ocauçu,4294.0,32921.81,-22.4389999999999,-49.92300000099989
SP,Oriente,6569.0,19753.85,-22.1529999999999,-50.091
SP,Orlândia,44682.0,57728.08,-20.719999996000002,-47.8870000189999
SP,Oscar Bressane,2603.0,43366.02,-22.317999999999902,-50.28099999999989
SP,Pereira Barreto,25685.0,42339.32,-20.637999999999902,-51.108999999999895
SP,Pompéia,22326.0,87425.49,-22.108999999999902,-50.1719999999999
SP,Quintana,6736.0,41016.0,-22.0729999999999,-50.30799999999989
SP,Regente Feijó,20523.0,47932.82,-22.2209377189999,-51.302980518999895
SP,Sud Mennucci,7738.0,29307.88,-20.6909999989999,-50.92399999999989
SP,Suzanápolis,4063.0,84169.56,-20.5009999999999,-51.0249999999999
RS,Balneário Pinhal,14645.0,21310.39,-30.2469999979999,-50.233000006999895
SC,Mafra,56825.0,43817.87,-26.123463765999897,-49.81125813999989
SC,Monte Castelo,8263.0,28731.69,-26.4572811379999,-50.2344380199999
SC,Pouso Redondo,17965.0,40021.42,-27.2573845239999,-49.931229158
SC,Salete,7674.0,41456.71,-26.979694840999898,-50.0043659719999
SP,Americana,244370.0,62271.47,-22.739000003999898,-47.33100008699989
AP,Santana,124808.0,20132.66,-0.04944633876738241,-51.1727381679658
AP,Vitória do Jari,16572.0,14296.72,-0.9269487189560257,-52.41608189791138
PA,Afuá,39910.0,11130.94,-0.1572824198587283,-50.39024679303253
PA,Breves,104280.0,8572.43,-1.6757313419999498,-50.4751257649999
SP,Angatuba,25724.0,57306.48,-23.490000000000002,-48.413000000000004
MT,Cáceres,95339.0,23753.91,-16.076378814,-57.681616117
MT,Indiavaí,2806.0,36921.25,-15.496235426999899,-58.578742180999896
MT,Glória D'Oeste,2990.0,29844.05,-15.7683587459999,-58.3086001679999
MT,Porto Esperidião,12176.0,25346.89,-15.855206372999898,-58.464727346000004
SP,Borborema,16278.0,31833.29,-21.619999999,-49.074000002999895
SP,Buri,20050.0,34121.21,-23.7979999999999,-48.5929999999999
SP,Campina do Monte Alegre,6088.0,24817.17,-23.5919999999999,-48.4769999999999
SP,Capão Bonito,47098.0,26945.89,-24.0059999999999,-48.3489999999999
SP,Cosmópolis,74662.0,28255.87,-22.6459999959999,-47.1960000429999
PR,Mirador,2180.0,58094.56,-23.2557563039999,-52.774812655999895
PR,Rondon,9664.0,36225.59,-23.417972713999898,-52.7720828719999
PR,São Manoel do Paraná,2165.0,28799.62,-23.395258544999898,-52.646036630999895
PR,São Tomé,5778.0,28293.49,-23.534882661999898,-52.590036774999895
SP,Nova Campina,9962.0,22192.26,-24.119571260259402,-48.905675074178404
SP,Ribeira,3320.0,18699.17,-24.6569999999999,-49.008999999999894
MG,Conceição da Barra de Minas,3939.0,17449.47,-21.127856060999896,-44.47426917
MG,Coronel Xavier Chaves,3448.0,26367.67,-21.023850445999898,-44.2232684639999
PR,Adrianópolis,5797.0,63631.39,-24.6569999999999,-48.99099999999989
PR,Brasilândia do Sul,2521.0,109465.23,-24.1975163949999,-53.527155592999904
PR,Cerro Azul,17884.0,22652.48,-24.824,-49.260999999999896
PR,Douradina,8988.0,93597.1,-23.3837647739999,-53.29251759499989
PR,Maripá,5562.0,85964.22,-24.4199706109999,-53.83113018899989
PR,Nova Santa Rosa,8311.0,52914.12,-24.466492366999898,-53.9537303589999
PR,Palotina,32389.0,86939.78,-24.2839076149999,-53.8393518249999
RS,Aratiba,6145.0,154104.03,-27.3949103459999,-52.3022510199999
RS,Áurea,3517.0,46470.87,-27.6967682039999,-52.0543069949999
RS,Barra do Rio Azul,1621.0,49813.05,-27.4090235259999,-52.4136278989999
RS,Cotiporã,3824.0,43914.1,-28.9940659279999,-51.6969702039999
RS,David Canabarro,4732.0,48470.51,-28.3885230289999,-51.8469983979999
RS,Coxilha,2731.0,154691.89,-28.12705687450337,-52.29681191857293
RS,Erechim,107368.0,64103.0,-27.642877746999897,-52.2707679869999
RS,Estação,5924.0,59200.96,-27.9138887809999,-52.259800264999896
RS,Fagundes Varela,2750.0,71970.31,-28.8820005599999,-51.7024876629999
RS,Flores da Cunha,31352.0,80956.1,-29.028888889999898,-51.1816666699999
RS,Getúlio Vargas,16158.0,49118.74,-27.8886860999999,-52.2298672089999
RS,Guabiju,1478.0,89842.5,-28.5395097289999,-51.6908941819999
RS,Ipiranga do Sul,1871.0,94937.47,-27.9372292689999,-52.425404590999904
RS,Mato Castelhano,2543.0,66163.47,-28.2765530662347,-52.19658217236501
RS,Monte Belo do Sul,2514.0,37563.3,-29.16320623,-51.6339752459999
RS,Muliterno,1901.0,48389.03,-28.3301094459999,-51.7695214519999
RS,Nova Bassano,10089.0,79512.9,-28.733398725999898,-51.7019806839999
RS,Nova Pádua,2563.0,39098.98,-29.0289999999999,-51.306999999999896
RS,Nova Roma do Sul,3743.0,45232.13,-28.989193529999902,-51.4085019209999
RS,Paraí,7793.0,54464.94,-28.5937359939999,-51.7876084319999
RS,Passo Fundo,206103.0,60905.63,-28.259613323999897,-52.4069456269999
RS,São Domingos do Sul,3091.0,39933.74,-28.5306089999999,-51.8892295829999
RS,São Jorge,2808.0,47482.38,-28.500249509,-51.7046033589999
RS,São Marcos,21756.0,52647.06,-28.9678646479999,-51.069782131999894
RS,Vanini,2130.0,44495.54,-28.4741853039999,-51.8451187769999
RS,Veranópolis,26813.0,64845.47,-28.9351641299999,-51.548391380999895
RS,Vila Flores,3407.0,87335.42,-28.861906239999897,-51.551183481
RS,Vila Lângaro,2070.0,81609.37,-28.1071133149999,-52.145956914
RS,Vista Alegre do Prata,1553.0,54879.53,-28.809472296911398,-51.7862084024789
RS,Casca,9070.0,79153.17,-28.565815670999896,-51.977122505
RS,Dois Lajeados,3410.0,50616.02,-28.9858823179999,-51.837525467999896
RS,Doutor Ricardo,1967.0,40106.77,-29.086000000000002,-51.9919999999999
RS,Fontoura Xavier,10181.0,22342.41,-28.9830135849999,-52.350211460999894
RS,Encantado,23047.0,50694.44,-29.238896577297297,-51.87375927685699
RS,Gentil,1619.0,117756.19,-28.4326406439999,-52.035333255999895
RS,Guaporé,26199.0,43858.55,-28.8484853699999,-51.889172562999896
RS,Ilópolis,4054.0,34674.18,-28.927844369000002,-52.1255917319999
RS,Itapuca,2037.0,46261.07,-28.780533074999898,-52.1727565219999
RS,Marques de Souza,3981.0,31181.68,-29.3298430689999,-52.0976142329999
RS,Montauri,1430.0,68627.31,-28.653998316999896,-52.0771778659999
RS,Muçum,4967.0,60771.23,-29.16681245,-51.874779182999895
RS,Nova Alvorada,3698.0,63973.55,-28.674742360999897,-52.166890456999894
RS,Nova Bréscia,3345.0,42195.23,-29.2139999999999,-52.02799999999989
RS,Pouso Novo,1586.0,38725.99,-29.1709999999999,-52.2079999999999
RS,Roca Sales,11556.0,49851.25,-29.2894517599999,-51.870880895999896
RS,Santa Tereza,1722.0,28949.13,-29.170551159000002,-51.7342335609999
RS,Santo Antônio do Palma,2118.0,56561.14,-28.4934680789999,-52.0251227119999
RS,São José do Herval,1917.0,30835.69,-29.0439999999999,-52.29599999999989
RS,São Valentim do Sul,2248.0,42515.69,-29.0469999999999,-51.764999999999894
RS,Serafina Corrêa,18074.0,43283.1,-28.7140305199999,-51.9311638389999
RS,Travesseiro,2331.0,33499.3,-29.296891329999898,-52.0570112349999
RS,Vila Maria,4368.0,89149.59,-28.532851934999897,-52.1524661779999
PR,Fernandes Pinheiro,5561.0,45649.28,-25.413253301999898,-50.54932556199989
RS,Gramado dos Loureiros,2036.0,46453.26,-27.444292114999897,-52.9182193809999
RS,Ibirapuitã,3988.0,53540.94,-28.6239999999999,-52.5109999969999
RS,Itatiba do Sul,3143.0,25996.27,-27.3852280129999,-52.45582558
RS,Jacutinga,3532.0,65770.01,-27.729276899,-52.5365331719999
RS,Não-Me-Toque,17886.0,123422.26,-28.4589999999999,-52.820999996
RS,Pinhal,2581.0,47787.94,-27.512951793000003,-53.215889954999895
RS,Pinheirinho do Vale,4926.0,26704.69,-27.2117205999999,-53.6165920239999
RS,Ponte Preta,1501.0,63989.35,-27.6584419999999,-52.490188999999894
RS,Rio dos Índios,2571.0,53086.08,-27.299848509,-52.8406947799999
RS,Rodeio Bonito,5868.0,47593.36,-27.473305153,-53.17014038399989
RS,Ronda Alta,10633.0,44347.96,-27.7811987769999,-52.8078323779999
RS,Coqueiros do Sul,2267.0,83874.61,-28.1189999999999,-52.7829999969999
RS,Santo Antônio do Planalto,2018.0,93889.23,-28.396,-52.6909999969999
RS,São Valentim,3220.0,42093.07,-27.560556272999897,-52.525158471999895
RS,Sarandi,25024.0,51915.53,-27.9427399819999,-52.9214659909999
RS,Três Palmeiras,4232.0,42185.43,-27.6165189459999,-52.841982777999895
RS,Trindade do Sul,5781.0,60779.96,-27.521612873999896,-52.896787936
RS,Victor Graeff,2840.0,104179.68,-28.5599999999999,-52.7479999959999
PR,Barracão,10347.0,25538.63,-26.252475719989242,-53.63478676313884
RS,Campos Borges,3272.0,45853.46,-28.8859999999999,-52.9989999929999
RS,Condor,6766.0,92330.04,-28.2079999999999,-53.4869999869999
RS,Coronel Bicaco,7213.0,71419.97,-27.717013704,-53.7079900979999
RS,Derrubadas,2718.0,54601.48,-27.2654175399999,-53.8617479329999
RS,Dois Irmãos das Missões,1992.0,99996.91,-27.657789036999898,-53.53176794299989
RS,Erval Seco,6697.0,52854.5,-27.549876543999897,-53.508315981
RS,Espumoso,15594.0,71380.17,-28.724999999999902,-52.8499999949999
RS,Estrela Velha,3646.0,54145.31,-29.1769999999999,-53.15899999999989
RS,Fortaleza dos Valos,4252.0,132824.77,-28.7969999999999,-53.22299998999989
RS,Gramado Xavier,4378.0,25007.13,-29.2679999999999,-52.5789999989999
RS,Humaitá,4712.0,48651.94,-27.565509662999897,-53.967465048
RS,Ibirubá,20474.0,84109.24,-28.6279999999999,-53.089999991999896
RS,Lagoa dos Três Cantos,1604.0,97967.03,-28.570999999999902,-52.8579999949999
RS,Miraguaí,4899.0,38862.02,-27.4966165509999,-53.6862774109999
RS,Mormaço,3139.0,48847.68,-28.692,-52.69199999599989
RS,Palmitinho,7056.0,38497.82,-27.352608405,-53.55715265599989
RS,Pinhal Grande,4309.0,216252.56,-29.33686404106319,-53.340863746772044
RS,Redentora,11782.0,19767.66,-27.662279712999897,-53.6401933379999
RS,Salto do Jacuí,12512.0,96983.27,-29.0879999999999,-53.212999999999894
RS,Santa Bárbara do Sul,7813.0,171000.57,-28.3579999999999,-53.246999990999896
RS,São Martinho,5336.0,66347.14,-27.7087241719999,-53.9656358109999
RS,Sede Nova,2875.0,54794.43,-27.6341770999999,-53.9503730149999
RS,Selbach,5114.0,73361.94,-28.628999999999902,-52.952999993999896
RS,Tapera,10569.0,60580.29,-28.6259999999999,-52.8699999949999
RS,Tenente Portela,13385.0,43273.27,-27.3706345569999,-53.7572427119999
RS,Três Passos,23799.0,43406.37,-27.4548739409999,-53.9321056919999
RS,Tunas,4585.0,26356.28,-29.103,-52.9559999999999
RS,Vista Alegre,2726.0,50279.94,-27.3699550939999,-53.4914163599999
RS,Augusto Pestana,6545.0,77033.28,-28.514436252234844,-53.99263772183325
RS,Alegria,3287.0,47648.88,-27.832892463217444,-54.057586207521645
RS,Catuípe,8631.0,73932.28,-28.2499999999999,-54.011999999999894
RS,Chiapetta,3684.0,105546.96,-27.920462243999896,-53.941077322
RS,Crissiumal,13269.0,38358.26,-27.4999940039999,-54.1009694499999
RS,Doutor Maurício Cardoso,4380.0,59542.4,-27.5059205349999,-54.3610631649999
RS,Giruá,15729.0,76479.16,-28.0279999999999,-54.349999999999895
RS,Horizontina,19446.0,134124.88,-27.6259761729999,-54.3080537069999
RS,Ijuí,84041.0,61760.07,-28.3880000009999,-53.9149999759999
RS,Inhacorá,2207.0,50093.22,-27.883066718,-54.0169705679999
RS,Júlio de Castilhos,19159.0,100483.88,-29.2269999999999,-53.681999999999896
RS,Nova Candelária,2677.0,85704.31,-27.6069343919999,-54.1069334619999
RS,Nova Ramada,2195.0,138805.04,-28.064000001000004,-53.696999983
RS,Novo Machado,3191.0,58399.67,-27.5739862139999,-54.5049903809999
RS,Panambi,44583.0,71052.72,-28.2929999999999,-53.5019999869999
RS,Parobé,59419.0,23398.44,-29.629035444,-50.8349545029999
RS,Pejuçara,3840.0,120888.24,-28.4230000009999,-53.655999982999894
RS,Santa Rosa,73882.0,50513.48,-27.8709639689999,-54.48102264199989
RS,Santo Ângelo,77544.0,41012.36,-28.2989999999999,-54.2629999999999
RS,Santo Antônio da Patrulha,43397.0,38723.81,-29.8179501279999,-50.52003790599989
RS,Santo Augusto,13813.0,61423.02,-27.8497773639999,-53.777966912000004
RS,São José do Inhacorá,2040.0,90094.6,-27.7249456389999,-54.12900492199989
RS,São Valério do Sul,2732.0,33099.83,-27.788605442999902,-53.9360291129999
RS,Sete de Setembro,1931.0,54712.96,-28.1309999999999,-54.462999999999894
RS,Tiradentes do Sul,5532.0,35473.86,-27.398012071999897,-54.084008051
RS,Três Coroas,28948.0,27813.49,-29.517013103,-50.7779495929999
RS,Três de Maio,23846.0,56767.21,-27.7731698629999,-54.23998619299989
RS,Tucunduva,5612.0,46209.93,-27.656984278999897,-54.4400202289999
RS,Tupanciretã,24182.0,84856.89,-29.0809999999999,-53.836000000000006
RS,Tuparendi,7730.0,49616.17,-27.7560317329999,-54.482027345999896
RS,Alvorada,212352.0,15550.82,-29.9976099530635,-51.07778157382824
RS,Canoas,349728.0,62892.77,-29.915747602,-51.1821007459999
RS,Capivari do Sul,4793.0,80707.69,-30.1450000009999,-50.514999999999894
RS,Dois Irmãos,33547.0,65238.03,-29.5824981419999,-51.096292994
RS,Esteio,83352.0,44988.45,-29.8509411339999,-51.1796264479999
RS,Feliz,13728.0,42930.67,-29.4509999999999,-51.3059999999999
RS,Glorinha,8304.0,55622.0,-29.880262984369324,-50.78319959587255
RS,Gramado,36864.0,72103.34,-29.3789993709999,-50.874050174999894
RS,Gravataí,285564.0,35934.57,-29.9361954809999,-51.0167177189999
RS,Guaíba,98331.0,84254.24,-30.1139999769999,-51.32500000699989
RS,Lindolfo Collor,6193.0,59074.46,-29.596999999999902,-51.2089999999999
RS,Linha Nova,1724.0,38038.69,-29.4679999999999,-51.200999999999894
RS,Morro Reuter,6570.0,41729.98,-29.538,-51.0809999999999
RS,Mostardas,12888.0,49916.42,-31.1069999999999,-50.92099999999989
RS,Nova Hartz,22147.0,36379.38,-29.582947811999897,-50.9020261289999
RS,Nova Santa Rita,30482.0,81606.01,-29.85057201252164,-51.27601021565207
RS,Novo Hamburgo,247303.0,40589.43,-29.6850054729999,-51.1411490209999
RS,Picada Café,5780.0,66860.05,-29.4532112859999,-51.1339758049999
RS,Portão,38081.0,43654.26,-29.698237865000003,-51.2368241909999
RS,Presidente Lucena,2972.0,71942.18,-29.517085059000003,-51.17739630199989
RS,Salvador do Sul,7975.0,42339.98,-29.441933021999898,-51.511535552999895
RS,Santa Maria do Herval,6382.0,43780.58,-29.498016956,-50.9930391139999
RS,São José do Hortêncio,4924.0,23936.9,-29.524739172,-51.248575282999894
RS,São Leopoldo,240378.0,45159.57,-29.7607833689999,-51.1516617819999
RS,São Pedro da Serra,3881.0,29174.82,-29.4204816089999,-51.5107515239999
RS,Sapucaia do Sul,142508.0,29500.52,-29.8223805919999,-51.1474034219999
RS,Tavares,5484.0,22657.34,-31.28913792198448,-51.09168047087696
RS,Vale Real,6046.0,32797.33,-29.3982170439999,-51.253421716999895
RS,Viamão,257330.0,16846.27,-30.0810000009999,-51.0230000489999
RS,Cristal,8121.0,38037.96,-31.003001341999898,-52.0499468209999
RS,Herveiras,3019.0,23564.77,-29.454356233999896,-52.650535528999896
RS,Ibiraiaras,7267.0,55000.81,-28.370079697999902,-51.6369192779999
RS,Lagoão,6469.0,23912.37,-29.223157630999896,-52.7720430939999
RS,Minas do Leão,8130.0,34338.93,-30.1269999959999,-52.047999999999895
RS,Nova Prata,28021.0,61740.72,-28.7824905729999,-51.6100203659999
RS,Passo do Sobrado,6612.0,34730.74,-29.7479999999999,-52.2749999999999
RS,Pelotas,343826.0,31347.6,-31.7716040369999,-52.343802442999895
RS,Protásio Alves,1929.0,48347.62,-28.758785748999898,-51.4739660139999
RS,Rio Pardo,38257.0,36346.75,-29.989722219999898,-52.37805556
RS,Saldanha Marinho,2596.0,97938.15,-28.3929323969999,-53.095545099999896
RS,Santa Cruz do Sul,132271.0,74205.0,-29.7179999999999,-52.425999999999895
RS,São José do Norte,27866.0,28446.79,-32.014999999999894,-52.0419999969999
RS,São Lourenço do Sul,43501.0,39103.99,-31.3650692639999,-51.977876050999996
RS,Sertão Santana,6586.0,47793.25,-30.46426959736,-51.6077225924278
RS,Sinimbu,10152.0,21028.34,-29.5389999999999,-52.5219999999999
RS,Tapes,17363.0,34781.51,-30.6750478845929,-51.4008798313509
RS,Turuçu,3408.0,48041.68,-31.4219952539999,-52.1780022059999
RS,Vale do Sol,11873.0,22969.08,-29.6038499819999,-52.6863390259999
RS,Vale Verde,3531.0,36944.67,-29.7869999999999,-52.1839999999999
RS,Venâncio Aires,72373.0,51566.6,-29.6059999999999,-52.192
PR,Farol,2995.0,72035.16,-24.0937996849999,-52.6223745259999
SP,Paulicéia,7540.0,26544.4,-21.3179461249999,-51.8311230759999
SP,Santa Mercedes,2947.0,23436.56,-21.3509131419999,-51.754912002999895
MS,Rio Verde de Mato Grosso,20025.0,31622.15,-18.917869777,-54.844656917
MS,Rio Negro,4758.0,28229.7,-19.4485395689999,-54.987174862
SC,Calmon,3325.0,29378.94,-26.602229206999898,-51.0996541809999
SC,Frei Rogério,1918.0,53228.76,-27.174576925999897,-50.80794323599989
RS,Boqueirão do Leão,7691.0,19554.48,-29.3011744499999,-52.4299794499999
RS,Cachoeira do Sul,81552.0,43440.91,-30.0389999999999,-52.8939999929999
RS,Cacique Doble,5083.0,33294.25,-27.769066021,-51.666782383999895
RS,Candelária,31475.0,34255.3,-29.6689999999999,-52.788999999999895
RS,Cerro Branco,4720.0,19101.32,-29.65389319091351,-52.942238654129206
RS,Ibarama,4393.0,25546.56,-29.420975910978164,-53.132870321630335
RS,Maximiliano de Almeida,4254.0,37875.46,-27.6326591029999,-51.8017206339999
RS,Novo Cabrais,4246.0,31363.74,-29.735000000000003,-52.9479999989999
RS,Paim Filho,3731.0,44932.84,-27.7091074579999,-51.76156814
RS,Passa Sete,5790.0,22967.57,-29.447425282999898,-52.9653198329999
RS,Progresso,6235.0,26706.68,-29.2430315529999,-52.3112307179999
RS,São José do Ouro,6911.0,66997.04,-27.773724339999898,-51.59472649199989
RS,Sobradinho,15041.0,29163.04,-29.41603774565207,-53.029101964130334
PR,Espigão Alto do Iguaçu,3980.0,40911.0,-25.4258926509999,-52.838675558999896
RS,Lagoa Vermelha,27751.0,54534.96,-28.2122554869999,-51.5230739089999
RS,Marcelino Ramos,4239.0,39590.38,-27.4642966059999,-51.908937126999895
RS,Mariano Moro,1987.0,36681.94,-27.354259624999898,-52.147983200999896
RS,Quevedos,2793.0,107161.62,-29.353010065999896,-54.0719736449999
RS,Rolante,21591.0,33884.81,-29.6510172139999,-50.576123133
RS,Sananduva,16382.0,51509.18,-27.9508873089999,-51.810283066000004
RS,Santo Expedito do Sul,2287.0,56384.95,-27.9091735119999,-51.6425402969999
RS,São Francisco de Paula,21871.0,46934.89,-29.447955613999902,-50.5839854529999
RS,São João da Urtiga,4625.0,39815.86,-27.8172107239999,-51.8299800269999
RS,Severiano de Almeida,3607.0,41422.91,-27.4323106079999,-52.1159036569999
RS,Vitória das Missões,3052.0,52269.64,-28.3509999999999,-54.495999999999896
PR,Boa Vista da Aparecida,7524.0,24632.62,-25.437202873999897,-53.40715596
RS,Caiçara,4659.0,32805.41,-27.2771101659999,-53.430963895999895
RS,Canguçu,56370.0,29448.32,-31.394948103999898,-52.6760025039999
RS,Carlos Gomes,1327.0,53087.07,-27.716177278999897,-51.9121234259999
RS,Centenário,2865.0,42156.31,-27.7608895879999,-52.000970280999894
RS,Cristal do Sul,2840.0,33359.29,-27.455274147999898,-53.248273993999895
RS,Dona Francisca,2958.0,36036.35,-29.622,-53.35699999999989
RS,Encruzilhada do Sul,26039.0,41512.46,-30.5439999999999,-52.5219999949999
RS,Faxinal do Soturno,6651.0,40611.12,-29.5749999999999,-53.444999999999894
RS,Frederico Westphalen,31675.0,45165.14,-27.3583100129999,-53.3950667409999
RS,Itaara,5573.0,51436.88,-29.61,-53.764999999999894
RS,Jaboticaba,3738.0,36578.03,-27.632920452999898,-53.278361909000004
RS,Lajeado do Bugre,2569.0,29145.22,-27.6900479589999,-53.182222609
RS,Liberato Salzano,5087.0,33898.65,-27.5999996969999,-53.0727731659999
RS,Nicolau Vergueiro,1667.0,87733.01,-28.5361352719999,-52.4625610409999
RS,Nova Boa Vista,1731.0,83964.24,-27.993279019999896,-52.98027495299989
RS,Nova Palma,6519.0,58703.35,-29.471999999999902,-53.468999999999895
RS,Novo Barreiro,4185.0,32305.57,-27.9076260299999,-53.113082868999896
RS,Novo Tiradentes,2189.0,34137.89,-27.5629948949999,-53.18323388099989
RS,Piratini,20743.0,42437.1,-31.4479485409999,-53.104046727999894
RS,Restinga Sêca,15702.0,42887.51,-29.8129999999999,-53.37499999999989
RS,Sagrada Família,2601.0,31762.83,-27.7059526769999,-53.135415345999895
RS,Santana da Boa Vista,8037.0,45402.39,-30.872,-53.114999987999894
RS,São José das Missões,2491.0,37475.0,-27.7785405039999,-53.1196894319999
RS,Seberi,10678.0,57805.09,-27.4837389009999,-53.3993212829999
RS,Silveira Martins,2365.0,36630.0,-29.6419999999999,-53.586000000000006
RS,Taquaruçu do Sul,3081.0,61297.18,-27.4010650439999,-53.468515195
RS,Três Arroios,2620.0,53891.49,-27.499704123999898,-52.147884999999896
RS,Viadutos,4628.0,44204.95,-27.571124921999896,-52.02094066
MT,Itiquira,13727.0,156247.05,-17.204948722999998,-54.146057785
SP,Tupi Paulista,15670.0,21720.31,-21.3864781229999,-51.57468814199989
MT,Alto Garças,12323.0,97187.86,-16.943469036,-53.528935896
RS,Barão do Triunfo,7550.0,18850.07,-30.39037884443865,-51.73774541679708
RS,Caibaté,4802.0,55167.67,-28.288,-54.6379999999999
RS,Cândido Godói,6106.0,58702.31,-27.9520293429999,-54.752078368999896
RS,Candiota,9707.0,282683.22,-31.5579239989999,-53.6729929409999
RS,Cerro Largo,14243.0,55941.51,-28.1489999999999,-54.73799999999989
RS,Formigueiro,6569.0,46095.12,-30.0013954439999,-53.502951536
RS,Guarani das Missões,7393.0,49049.53,-28.1409999999999,-54.55799999999989
RS,Jaguarão,26327.0,40239.75,-32.566000002,-53.3759999769999
RS,Lavras do Sul,7410.0,67155.99,-30.8130000019999,-53.8949999669999
RS,Mata,4760.0,35505.31,-29.5661044789999,-54.4599036509999
RS,Porto Mauá,2332.0,38314.42,-27.57503922,-54.6680362949999
RS,Porto Vera Cruz,1258.0,35939.08,-27.736028027999897,-54.9009590749999
RS,Santa Maria,285159.0,33532.26,-29.6839999999999,-53.806999999999896
RS,Santo Cristo,14177.0,55305.62,-27.8239723109999,-54.662981007999896
RS,São Gabriel,62187.0,43790.22,-30.336000000000002,-54.319999999999894
RS,São Martinho da Serra,3228.0,104119.72,-29.538,-53.8549999999999
RS,São Pedro do Sul,16100.0,33059.31,-29.620934241999898,-54.1791064299999
RS,São Sepé,23492.0,56671.05,-30.1610000009999,-53.564999979999904
RS,Senador Salgado Filho,2761.0,53987.11,-28.028053746,-54.5447771999999
RS,Toropi,2753.0,36808.11,-29.4779218629999,-54.227967309
RS,Ubiretama,1952.0,56727.23,-28.0459999999999,-54.6809999999999
PR,Alvorada do Sul,11598.0,29176.4,-22.7799277899999,-51.2309268559999
PR,Porecatu,12587.0,44031.43,-22.756087422999897,-51.37912817099989
RS,Campina das Missões,5325.0,44914.25,-27.988977070999898,-54.838974903
RS,Charqueadas,41705.0,41649.07,-29.9683283529999,-51.632014475999895
RS,Cruzeiro do Sul,12457.0,42787.38,-29.5129999999999,-51.98499999999989
RS,Estrela,34669.0,62633.5,-29.488830306,-51.9531737139999
RS,Fazenda Vilanova,4680.0,30090.25,-29.5909025789999,-51.823808637999896
RS,General Câmara,8339.0,33142.16,-29.9049999999999,-51.7599999999999
RS,Lajeado,86005.0,65067.95,-29.457059307506288,-51.96855751483509
RS,Maratá,2713.0,29788.54,-29.5496535419999,-51.555769647999895
RS,Mariana Pimentel,3892.0,26848.63,-30.353,-51.5829999999999
RS,Mato Leitão,4627.0,39017.82,-29.5239999999999,-52.1289999999999
RS,Montenegro,66157.0,86949.68,-29.6872560939999,-51.4604032239999
RS,Pareci Novo,3885.0,35118.04,-29.6398969339999,-51.4009059779999
RS,Paverama,8541.0,28387.36,-29.5560230419999,-51.7359889109999
RS,Poço das Antas,2105.0,62592.03,-29.4499999999999,-51.67099999999989
RS,Porto Lucena,4514.0,30053.37,-27.8559982389999,-55.0161472759999
RS,Santa Clara do Sul,6755.0,50200.65,-29.4689999999999,-52.087999999999894
RS,São Jerônimo,24569.0,27148.45,-29.9646025509999,-51.7211733629999
RS,Sério,1889.0,31535.66,-29.3829999999999,-52.2689999999999
RS,Taquari,26907.0,40661.52,-29.8,-51.8639999999999
RS,Teutônia,34275.0,45981.15,-29.4479999999999,-51.8059999999999
PR,Altônia,22293.0,20747.69,-23.871982375,-53.8948945899999
RS,Bagé,121518.0,30846.53,-31.3310000049999,-54.10699990799989
AM,Santo Antônio do Içá,20889.0,11360.72,-3.10316222222224,-67.94620499999999
AM,São Paulo de Olivença,40837.0,8182.07,-3.4619144444444596,-68.95105833333331
AM,Itamarati,7777.0,17438.6,-6.42899111111109,-68.25298722222219
RS,Cacequi,12291.0,50694.42,-29.8839612909999,-54.8249682889999
RS,Chuvisca,5518.0,23511.99,-30.7577357889621,-51.9788145829432
RS,Dom Feliciano,15556.0,22940.15,-30.705577112325233,-52.107462590131696
RS,Dom Pedrito,38222.0,57844.71,-30.9829999999999,-54.672999999999895
RS,Herval,6807.0,37256.6,-32.0240000009999,-53.3959999779999
RS,Hulha Negra,6894.0,45617.4,-31.404023279999898,-53.8691014679999
RS,Maçambará,4539.0,128231.01,-29.14728986975584,-56.063685439730286
RS,Manoel Viana,7315.0,74773.78,-29.589016029999897,-55.4830026219999
RS,Nova Esperança do Sul,5465.0,31539.73,-29.4100102589999,-54.8289835059999
RS,Pedro Osório,7683.0,35227.12,-31.8664528051948,-52.8229691172322
RS,Pirapó,2205.0,42934.46,-28.045,-55.199000000000005
RS,Quaraí,22531.0,27772.79,-30.388000027999897,-56.450999571000004
RS,Roque Gonzales,6750.0,64744.41,-28.1309999999999,-55.026
RS,Rosário do Sul,39210.0,35245.33,-30.2579999999999,-54.913999999999895
RS,Salvador das Missões,2734.0,65277.41,-28.1259999999999,-54.834999999999894
RS,Santiago,49298.0,41004.58,-29.191852816999898,-54.867045053999895
RS,Santo Antônio das Missões,9930.0,67869.46,-28.5109999999999,-55.228
RS,São Borja,59768.0,43012.23,-28.6610000119999,-56.0039997609999
RS,São Luiz Gonzaga,33124.0,57474.25,-28.408,-54.9609999999999
RS,São Miguel das Missões,7692.0,112835.1,-28.5514870099999,-54.553875264999895
RS,São Nicolau,5153.0,44254.79,-28.1829999999999,-55.266999999999896
RS,São Pedro do Butiá,2950.0,54801.17,-28.1239999999999,-54.886999999999894
RS,Unistalda,2306.0,64642.76,-29.046942587999897,-55.1499755749999
RS,Uruguaiana,126766.0,29322.46,-29.7550000459999,-57.087999309999894
PB,Alcantil,5527.0,9968.7,-7.74114208299994,-36.064903542
PR,Umuarama,113416.0,36183.64,-23.7685493249999,-53.3056564649999
AM,Envira,20748.0,10387.83,-7.4321688888889,-70.02346444444439
RR,Uiramutã,11014.0,13069.3,4.595017631919097,-60.16261055527583
RS,Barra do Quaraí,4238.0,91123.36,-30.207000074999897,-57.554998948999895
RR,Pacaraima,20108.0,16366.22,4.47525934021225,-61.1473063471493
RR,Normandia,11772.0,17232.37,3.88297828530181,-59.635206283568294
RR,Bonfim,12701.0,41131.03,3.363731721457437,-59.82975296680074
AP,Pracuúba,5370.0,15752.05,1.74226878950006,-50.7833663204999
SC,Ponte Serrada,11674.0,24929.88,-26.8691073809999,-52.020889129000004
TO,Palmeiras do Tocantins,6830.0,13961.56,-6.61124268099996,-47.548485559
SC,Santa Cecília,17004.0,38931.54,-26.9674285579999,-50.4171955579999
SC,São Ludgero,13886.0,66911.55,-28.3283794399999,-49.176194804999895
SC,Herval d'Oeste,22820.0,27341.12,-27.175612300999898,-51.4927510239999
SC,Concórdia,75683.0,60241.75,-27.2298339089999,-52.0362202769999
SC,Caçador,80017.0,58773.87,-26.7840156359999,-51.0060304949999
SC,Grão Pará,6621.0,49711.35,-28.185531892999897,-49.2146946239999
PR,Almirante Tamandaré,121420.0,15947.74,-25.3251495169999,-49.2836492579999
PR,Araruna,14029.0,39018.11,-23.929099709000003,-52.489049055
PB,Maturéia,6690.0,9239.25,-7.26560752299997,-37.341841877
PB,Riacho de Santo Antônio,1999.0,15288.7,-7.69220786899996,-36.156000690999996
RN,Cerro Corá,11182.0,12557.0,-6.04554637199993,-36.3479561939999
MG,Orizânia,8138.0,14998.7,-20.5050431239999,-42.2069236219999
MG,Rio Novo,8964.0,13398.92,-21.4752380119999,-43.127150977999904
MG,Tabuleiro,3669.0,17915.28,-21.3587670649999,-43.2497459419999
PR,Faxinal,17379.0,28779.4,-23.996097877,-51.3199284599999
RJ,Belford Roxo,515239.0,17156.71,-22.7361838489999,-43.3771063729999
RJ,Barra Mansa,185237.0,34816.53,-22.5298055609999,-44.18380121999989
RJ,Mangaratiba,45941.0,69913.59,-22.9418136389999,-44.0405364029999
RJ,Queimados,152311.0,28636.92,-22.7128016149999,-43.5650280569999
MG,Frei Inocêncio,9716.0,15488.87,-18.5654066449999,-41.9048607099999
SP,Ilhabela,36194.0,385605.85,-23.812881929999897,-45.363613616
SP,Itaquaquecetuba,379082.0,25112.29,-23.491299071,-46.3553767369999
SP,Mogi das Cruzes,455587.0,43031.34,-23.5383635469999,-46.2034998639999
SP,São Sebastião,91637.0,174696.31,-23.806592214351568,-45.40275010219412
TO,Couto Magalhães,5690.0,35759.76,-8.360244589873568,-49.17755181145299
TO,Araguatins,36573.0,14472.16,-5.65104058199995,-48.114239031
MT,Nova Nazaré,4013.0,35035.46,-13.989689413999898,-51.801200186
MT,Rio Branco,5147.0,20830.42,-15.242934207,-58.1172962699999
TO,Ipueiras,2088.0,22879.08,-11.241794919,-48.4434275959999
TO,São Valério,3848.0,40731.32,-11.9732243289999,-48.233632309
MS,Jaraguari,7342.0,51488.62,-20.10586817467532,-54.43764344989965
MT,Várzea Grande,290383.0,34151.42,-15.6658378339999,-56.128956321000004
MT,Mirassol d'Oeste,28135.0,29702.61,-15.6745864659999,-58.0896340369999
MT,Campinápolis,16223.0,26958.25,-14.541125009638622,-52.793919618863754
MA,Esperantinópolis,16971.0,9369.44,-4.8767187250555475,-44.88043013448561
PB,Borborema,5311.0,13030.55,-6.806093184999949,-35.599468546000004
PE,Belém do São Francisco,20730.0,17669.71,-8.75353385699998,-38.963351491
PB,Alagoinha,14629.0,9468.2,-6.95126522099997,-35.5463192449999
PB,Belém,17733.0,12297.24,-6.69433824099997,-35.537118167
PB,Caiçara,7182.0,9142.39,-6.61520823499995,-35.46819714
PB,Caldas Brandão,6077.0,12293.26,-7.168980905415428,-35.343023129711774
PB,Campina Grande,413830.0,25066.11,-7.233087301999939,-35.8908111
MG,Santa Luzia,221705.0,23863.19,-19.7699999999999,-43.85099999999989
PB,Juarez Távora,8014.0,9124.1,-7.17165986699996,-35.591608278
PB,Massaranduba,14077.0,9262.0,-7.181242231702384,-35.73364904038077
PB,Remígio,19973.0,9080.26,-6.968053118999929,-35.792306481
RN,Passagem,3114.0,14813.47,-6.28029862499994,-35.37848215
MG,Pedra Azul,24333.0,16498.08,-16.005908475,-41.281743196
MG,Salto da Divisa,7014.0,18829.72,-15.998162673233344,-39.95005242801856
RN,Lagoa d'Anta,6851.0,10339.92,-6.39159880599993,-35.597372729
MA,São Félix de Balsas,4540.0,18980.02,-7.084252838058143,-44.81718678551567
MA,Caxias,166159.0,12716.38,-4.879521641999929,-43.346047208
PE,Itacuruba,5013.0,14220.22,-8.726299393224537,-38.68754443242493
PB,Caaporã,22079.0,21157.09,-7.514270869926457,-34.916174155815774
PB,Cabedelo,69773.0,45182.89,-6.97182144999994,-34.8331166629999
PB,Juripiranga,10830.0,10836.82,-7.372594200999969,-35.23723604600001
MG,Ipatinga,267333.0,65869.82,-19.467999952,-42.5370021339999
MG,Nova Lima,97378.0,216092.4,-19.9859999999999,-43.846999999999895
MG,Ouro Preto,74824.0,127232.37,-20.3884288249999,-43.5044919499999
MG,Piumhi,35137.0,36452.59,-20.4649999999999,-45.9579999999999
MG,Sabará,137877.0,30474.48,-19.8859999999999,-43.806999999999896
MG,Sete Lagoas,243950.0,51894.81,-19.466,-44.24699999999989
PR,Carambeí,24225.0,65176.2,-24.950127508144575,-50.12184635266956
PR,Salto do Itararé,4862.0,21322.09,-23.6009999999999,-49.626000000999895
MG,Pompéu,32248.0,36287.11,-19.2254947849999,-44.992184460999894
RS,Arroio dos Ratos,14201.0,25163.34,-30.076999999,-51.7290000019999
MG,Confins,6867.0,70734.21,-19.6329999999999,-43.9829999999999
MG,Corinto,23607.0,25937.03,-18.380105697999902,-44.4572420289999
MG,Cristiano Otoni,5161.0,23967.13,-20.8312386469999,-43.8054081239999
RS,Cachoeirinha,132144.0,48874.53,-29.9324757139999,-51.077076072
RS,Campo Bom,69981.0,51443.5,-29.6811393579999,-51.05283222599989
RS,Canela,45957.0,34711.89,-29.3660261749999,-50.8159511429999
RS,Capão do Leão,25462.0,32600.83,-31.7686133429999,-52.5018684539999
RS,Caxias do Sul,523716.0,60506.95,-29.1490572479999,-51.1858485189999
RS,Carazinho,62413.0,61635.35,-28.2839999999999,-52.785999995999894
RS,Cerrito,6005.0,26865.43,-31.8533331683746,-52.8120360865487
RS,Cidreira,16897.0,21427.39,-30.168126233999896,-50.2019531019999
